[
  {
    "id": "s000001",
    "country": "USA",
    "adminDiv": "Alaska",
    "latitude": 51.925,
    "longitude": -177.16,
    "springName": "FUMAROLES ON KANAGA ISLAND",
    "type": "",
    "tempF": 219,
    "access": "",
    "fee": "",
    "externalLink": ""
  },
  {
    "id": "s000002",
    "country": "USA",
    "adminDiv": "Alaska",
    "latitude": 51.81,
    "longitude": -177.79,
    "springName": "HOT SPRING ON TANAGA ISLAND",
    "type": "",
    "tempF": "",
    "access": "",
    "fee": "",
    "externalLink": ""
  },
  {
    "id": "s000003",
    "country": "USA",
    "adminDiv": "Alaska",
    "latitude": 51.97,
    "longitude": -176.61,
    "springName": "HOT SPRINGS ON ADAK ISLAND",
    "type": "",
    "tempF": 154,
    "access": "",
    "fee": "",
    "externalLink": ""
  },
  {
    "id": "s000004",
    "country": "USA",
    "adminDiv": "Alaska",
    "latitude": 52.042,
    "longitude": -176.108,
    "springName": "HOT SPRINGS ON GREAT SITKIN ISLAND",
    "type": "",
    "tempF": 210,
    "access": "",
    "fee": "",
    "externalLink": ""
  },
  {
    "id": "s000005",
    "country": "USA",
    "adminDiv": "Alaska",
    "latitude": 58.92,
    "longitude": -153.98,
    "springName": "HOT SPRING WEST OF CAPE DOUGLAS",
    "type": "",
    "tempF": "",
    "access": "",
    "fee": "",
    "externalLink": ""
  },
  {
    "id": "s000006",
    "country": "USA",
    "adminDiv": "Alaska",
    "latitude": 52.19,
    "longitude": -174.25,
    "springName": "HOT SPRINGS ON ATKA ISLAND",
    "type": "",
    "tempF": 167,
    "access": "",
    "fee": "",
    "externalLink": ""
  },
  {
    "id": "s000007",
    "country": "USA",
    "adminDiv": "Alaska",
    "latitude": 52.34,
    "longitude": -174.26,
    "springName": "HOT SPRINGS ON ATKA ISLAND",
    "type": "",
    "tempF": "H",
    "access": "",
    "fee": "",
    "externalLink": ""
  },
  {
    "id": "s000008",
    "country": "USA",
    "adminDiv": "Alaska",
    "latitude": 52.27,
    "longitude": -174.042,
    "springName": "HOT SPRINGS ON ATKA ISLAND",
    "type": "",
    "tempF": "H",
    "access": "",
    "fee": "",
    "externalLink": ""
  },
  {
    "id": "s000009",
    "country": "USA",
    "adminDiv": "Alaska",
    "latitude": 52.87,
    "longitude": 173.13,
    "springName": "HOT SPRING ON ATTU ISLAND",
    "type": "",
    "tempF": "W",
    "access": "",
    "fee": "",
    "externalLink": ""
  },
  {
    "id": "s000010",
    "country": "USA",
    "adminDiv": "Alaska",
    "latitude": 66.217,
    "longitude": -149.547,
    "springName": "DALL HOT SPRINGS",
    "type": "",
    "tempF": 129,
    "access": "",
    "fee": "",
    "externalLink": ""
  },
  {
    "id": "s000011",
    "country": "USA",
    "adminDiv": "Alaska",
    "latitude": 65.217,
    "longitude": -162.9,
    "springName": "HOT SPRINGS NEAR LAVA CREEK",
    "type": "",
    "tempF": 127,
    "access": "",
    "fee": "",
    "externalLink": ""
  },
  {
    "id": "s000012",
    "country": "USA",
    "adminDiv": "Alaska",
    "latitude": 65.093,
    "longitude": -164.922,
    "springName": "PILGRIM SPRINGS",
    "type": "",
    "tempF": 178,
    "access": "",
    "fee": "",
    "externalLink": ""
  },
  {
    "id": "s000013",
    "country": "USA",
    "adminDiv": "Alaska",
    "latitude": 65.858,
    "longitude": -164.71,
    "springName": "SERPENTINE HOT SPRINGS",
    "type": "",
    "tempF": 171,
    "access": "",
    "fee": "",
    "externalLink": ""
  },
  {
    "id": "s000014",
    "country": "USA",
    "adminDiv": "Alaska",
    "latitude": 60.837,
    "longitude": -142.42,
    "springName": "HOT SPRING ON TWELVEMILE CREEK",
    "type": "",
    "tempF": "",
    "access": "",
    "fee": "",
    "externalLink": ""
  },
  {
    "id": "s000015",
    "country": "USA",
    "adminDiv": "Alaska",
    "latitude": 66.342,
    "longitude": -150.85,
    "springName": "KANUTI HOT SPRINGS",
    "type": "",
    "tempF": 151,
    "access": "",
    "fee": "",
    "externalLink": ""
  },
  {
    "id": "s000016",
    "country": "USA",
    "adminDiv": "Alaska",
    "latitude": 56.68,
    "longitude": -131.882,
    "springName": "BARNES LAKE HOT SPRINGS",
    "type": "",
    "tempF": 79,
    "access": "",
    "fee": "",
    "externalLink": ""
  },
  {
    "id": "s000017",
    "country": "USA",
    "adminDiv": "Alaska",
    "latitude": 56.233,
    "longitude": -131.267,
    "springName": "BRADFIELD CANAL HOT SPRINGS",
    "type": "",
    "tempF": 135,
    "access": "",
    "fee": "",
    "externalLink": ""
  },
  {
    "id": "s000018",
    "country": "USA",
    "adminDiv": "Alaska",
    "latitude": 65.367,
    "longitude": -161.25,
    "springName": "GRANITE MOUNTAIN HOT SPRINGS",
    "type": "",
    "tempF": 120,
    "access": "",
    "fee": "",
    "externalLink": ""
  },
  {
    "id": "s000019",
    "country": "USA",
    "adminDiv": "Alaska",
    "latitude": 65.047,
    "longitude": -142.848,
    "springName": "HOT SPRING ON FLAT CREEK",
    "type": "",
    "tempF": "",
    "access": "",
    "fee": "",
    "externalLink": ""
  },
  {
    "id": "s000020",
    "country": "USA",
    "adminDiv": "Alaska",
    "latitude": 56.928,
    "longitude": -158.12,
    "springName": "SURPRISE LAKE HOT SPRING",
    "type": "",
    "tempF": 73,
    "access": "",
    "fee": "",
    "externalLink": ""
  },
  {
    "id": "s000021",
    "country": "USA",
    "adminDiv": "Alaska",
    "latitude": 65.053,
    "longitude": -146.057,
    "springName": "CHENA HOT SPRINGS",
    "type": "",
    "tempF": 153,
    "access": "",
    "fee": "",
    "externalLink": ""
  },
  {
    "id": "s000022",
    "country": "USA",
    "adminDiv": "Alaska",
    "latitude": 65.483,
    "longitude": -144.637,
    "springName": "CIRCLE HOT SPRINGS",
    "type": "",
    "tempF": 135,
    "access": "",
    "fee": "",
    "externalLink": ""
  },
  {
    "id": "s000023",
    "country": "USA",
    "adminDiv": "Alaska",
    "latitude": 65.233,
    "longitude": -144.483,
    "springName": "HOT SPRINGS ON BIG WINDY CREEK",
    "type": "",
    "tempF": "H",
    "access": "",
    "fee": "",
    "externalLink": ""
  },
  {
    "id": "s000024",
    "country": "USA",
    "adminDiv": "Alaska",
    "latitude": 55.334,
    "longitude": -162.137,
    "springName": "HOT SPRING AT WEST END EMMONS LAKE",
    "type": "",
    "tempF": 68,
    "access": "",
    "fee": "",
    "externalLink": ""
  },
  {
    "id": "s000025",
    "country": "USA",
    "adminDiv": "Alaska",
    "latitude": 55.217,
    "longitude": -162.483,
    "springName": "HOT SPRINGS EAST OF COLD BAY",
    "type": "",
    "tempF": 129,
    "access": "",
    "fee": "",
    "externalLink": ""
  },
  {
    "id": "s000026",
    "country": "USA",
    "adminDiv": "Alaska",
    "latitude": 55.334,
    "longitude": -133.641,
    "springName": "DALTON (CRAIG) HOT SPRINGS",
    "type": "",
    "tempF": 109,
    "access": "",
    "fee": "",
    "externalLink": ""
  },
  {
    "id": "s000027",
    "country": "USA",
    "adminDiv": "Alaska",
    "latitude": 54.9,
    "longitude": -162.885,
    "springName": "HOT SPRING ON AMAGAT ISLAND",
    "type": "",
    "tempF": "H",
    "access": "",
    "fee": "",
    "externalLink": ""
  },
  {
    "id": "s000028",
    "country": "USA",
    "adminDiv": "Alaska",
    "latitude": 54.944,
    "longitude": -163.251,
    "springName": "HOT SPRINGS NEAR MORZHOVOI",
    "type": "",
    "tempF": 145,
    "access": "",
    "fee": "",
    "externalLink": ""
  },
  {
    "id": "s000029",
    "country": "USA",
    "adminDiv": "Alaska",
    "latitude": 51.775,
    "longitude": -178.793,
    "springName": "FUMAROLES ON GARELOI ISLAND",
    "type": "",
    "tempF": "H",
    "access": "",
    "fee": "",
    "externalLink": ""
  },
  {
    "id": "s000030",
    "country": "USA",
    "adminDiv": "Alaska",
    "latitude": 51.762,
    "longitude": -178.77,
    "springName": "FUMAROLES ON GARELOI ISLAND",
    "type": "",
    "tempF": 144,
    "access": "",
    "fee": "",
    "externalLink": ""
  },
  {
    "id": "s000031",
    "country": "USA",
    "adminDiv": "Alaska",
    "latitude": 62.058,
    "longitude": -145.222,
    "springName": "MINERAL SPRING (LOWER KLAWASI CONE)",
    "type": "",
    "tempF": 82,
    "access": "",
    "fee": "",
    "externalLink": ""
  },
  {
    "id": "s000032",
    "country": "USA",
    "adminDiv": "Alaska",
    "latitude": 62.081,
    "longitude": -145.007,
    "springName": "UPPER KLAWASI WARM SPRINGS",
    "type": "",
    "tempF": 86,
    "access": "",
    "fee": "",
    "externalLink": ""
  },
  {
    "id": "s000033",
    "country": "USA",
    "adminDiv": "Alaska",
    "latitude": 66.197,
    "longitude": -154.006,
    "springName": "TUNALKTEN LAKE HOT SPRING",
    "type": "",
    "tempF": null,
    "access": "",
    "fee": "",
    "externalLink": ""
  },
  {
    "id": "s000034",
    "country": "USA",
    "adminDiv": "Alaska",
    "latitude": 62.45,
    "longitude": -157.933,
    "springName": "HOT SPRING NEAR FLAT",
    "type": "",
    "tempF": "W",
    "access": "",
    "fee": "",
    "externalLink": ""
  },
  {
    "id": "s000035",
    "country": "USA",
    "adminDiv": "Alaska",
    "latitude": 55.983,
    "longitude": -131.661,
    "springName": "BAILEY HOT SPRING",
    "type": "",
    "tempF": 198,
    "access": "",
    "fee": "",
    "externalLink": ""
  },
  {
    "id": "s000036",
    "country": "USA",
    "adminDiv": "Alaska",
    "latitude": 55.933,
    "longitude": -131.559,
    "springName": "BELL ISLAND HOT SPRINGS",
    "type": "",
    "tempF": 165,
    "access": "",
    "fee": "",
    "externalLink": ""
  },
  {
    "id": "s000037",
    "country": "USA",
    "adminDiv": "Alaska",
    "latitude": 65.216,
    "longitude": -149.993,
    "springName": "HUTLINANA HOT SPRINGS",
    "type": "",
    "tempF": 109,
    "access": "",
    "fee": "",
    "externalLink": ""
  },
  {
    "id": "s000038",
    "country": "USA",
    "adminDiv": "Alaska",
    "latitude": 65.274,
    "longitude": -148.847,
    "springName": "TOLOVANA HOT SPRINGS",
    "type": "",
    "tempF": 140,
    "access": "",
    "fee": "",
    "externalLink": ""
  },
  {
    "id": "s000039",
    "country": "USA",
    "adminDiv": "Alaska",
    "latitude": 65.908,
    "longitude": -154.993,
    "springName": "DENIKTOW RIDGE HOT SPRINGS",
    "type": "",
    "tempF": "H",
    "access": "",
    "fee": "",
    "externalLink": ""
  },
  {
    "id": "s000040",
    "country": "USA",
    "adminDiv": "Alaska",
    "latitude": 65.267,
    "longitude": -155.28,
    "springName": "HOT SPRINGS NEAR DULBI RIVER",
    "type": "",
    "tempF": 126,
    "access": "",
    "fee": "",
    "externalLink": ""
  },
  {
    "id": "s000041",
    "country": "USA",
    "adminDiv": "Alaska",
    "latitude": 65.459,
    "longitude": -153.312,
    "springName": "LITTLE MELOZITNA HOT SPRINGS",
    "type": "",
    "tempF": 176,
    "access": "",
    "fee": "",
    "externalLink": ""
  },
  {
    "id": "s000042",
    "country": "USA",
    "adminDiv": "Alaska",
    "latitude": 65.129,
    "longitude": -154.692,
    "springName": "MELOZI (MELOZITNA) SPRINGS",
    "type": "",
    "tempF": 131,
    "access": "",
    "fee": "",
    "externalLink": ""
  },
  {
    "id": "s000043",
    "country": "USA",
    "adminDiv": "Alaska",
    "latitude": 65.97,
    "longitude": -154.033,
    "springName": "POCAHONTAS HOT SPRINGS",
    "type": "",
    "tempF": "H",
    "access": "",
    "fee": "",
    "externalLink": ""
  },
  {
    "id": "s000044",
    "country": "USA",
    "adminDiv": "Alaska",
    "latitude": 58.37,
    "longitude": -137.09,
    "springName": "HOT SPRINGS NEAR ICY POINT",
    "type": "",
    "tempF": 153,
    "access": "",
    "fee": "",
    "externalLink": ""
  },
  {
    "id": "s000045",
    "country": "USA",
    "adminDiv": "Alaska",
    "latitude": 58.033,
    "longitude": -136.017,
    "springName": "HOT SPRINGS NORTH END TENAKEE INLET",
    "type": "",
    "tempF": 180,
    "access": "",
    "fee": "",
    "externalLink": ""
  },
  {
    "id": "s000046",
    "country": "USA",
    "adminDiv": "Alaska",
    "latitude": 58.24,
    "longitude": -155.09,
    "springName": "HOT SPRING NEAR KATMAI PASS",
    "type": "",
    "tempF": "H",
    "access": "",
    "fee": "",
    "externalLink": ""
  },
  {
    "id": "s000047",
    "country": "USA",
    "adminDiv": "Alaska",
    "latitude": 58.27,
    "longitude": -154.89,
    "springName": "HOT SPRINGS NEAR MT KATMAI",
    "type": "",
    "tempF": "H",
    "access": "",
    "fee": "",
    "externalLink": ""
  },
  {
    "id": "s000048",
    "country": "USA",
    "adminDiv": "Alaska",
    "latitude": 63.883,
    "longitude": -150.717,
    "springName": "HOT SPRINGS EAST OF DIAMOND",
    "type": "",
    "tempF": "W",
    "access": "",
    "fee": "",
    "externalLink": ""
  },
  {
    "id": "s000049",
    "country": "USA",
    "adminDiv": "Alaska",
    "latitude": 63.683,
    "longitude": -151.233,
    "springName": "HOT SPRINGS NEAR GLACIER",
    "type": "",
    "tempF": "W",
    "access": "",
    "fee": "",
    "externalLink": ""
  },
  {
    "id": "s000050",
    "country": "USA",
    "adminDiv": "Alaska",
    "latitude": 69.33,
    "longitude": -144.044,
    "springName": "OKPILAK SPRINGS",
    "type": "",
    "tempF": 119,
    "access": "",
    "fee": "",
    "externalLink": ""
  },
  {
    "id": "s000051",
    "country": "USA",
    "adminDiv": "Alaska",
    "latitude": 69.627,
    "longitude": -146.027,
    "springName": "RED HILL SPRING",
    "type": "",
    "tempF": 91,
    "access": "",
    "fee": "",
    "externalLink": ""
  },
  {
    "id": "s000052",
    "country": "USA",
    "adminDiv": "Alaska",
    "latitude": 64.002,
    "longitude": -156.3,
    "springName": "HOT SPRING ON TRIBUTARY OF INNOKO R",
    "type": "",
    "tempF": "H",
    "access": "",
    "fee": "",
    "externalLink": ""
  },
  {
    "id": "s000053",
    "country": "USA",
    "adminDiv": "Alaska",
    "latitude": 56.717,
    "longitude": -132.005,
    "springName": "CHIEF SHAKES HOT SPRINGS",
    "type": "",
    "tempF": 122,
    "access": "",
    "fee": "",
    "externalLink": ""
  },
  {
    "id": "s000054",
    "country": "USA",
    "adminDiv": "Alaska",
    "latitude": 56.58,
    "longitude": -132.18,
    "springName": "SOUTH STIKINE SPRING",
    "type": "",
    "tempF": "W",
    "access": "",
    "fee": "",
    "externalLink": ""
  },
  {
    "id": "s000055",
    "country": "USA",
    "adminDiv": "Alaska",
    "latitude": 56.667,
    "longitude": -132.28,
    "springName": "TWIN LAKES HOT SPRINGS",
    "type": "",
    "tempF": 70,
    "access": "",
    "fee": "",
    "externalLink": ""
  },
  {
    "id": "s000056",
    "country": "USA",
    "adminDiv": "Alaska",
    "latitude": 56.836,
    "longitude": -135.374,
    "springName": "GODDARD HOT SPRINGS",
    "type": "",
    "tempF": 153,
    "access": "",
    "fee": "",
    "externalLink": ""
  },
  {
    "id": "s000057",
    "country": "USA",
    "adminDiv": "Alaska",
    "latitude": 55.368,
    "longitude": -161.961,
    "springName": "FUMAROLE",
    "type": "",
    "tempF": "H",
    "access": "",
    "fee": "",
    "externalLink": ""
  },
  {
    "id": "s000058",
    "country": "USA",
    "adminDiv": "Alaska",
    "latitude": 55.863,
    "longitude": -160.493,
    "springName": "HOT SPRING NEAR PORT MOLLER",
    "type": "",
    "tempF": 160,
    "access": "",
    "fee": "",
    "externalLink": ""
  },
  {
    "id": "s000059",
    "country": "USA",
    "adminDiv": "Alaska",
    "latitude": 51.944,
    "longitude": 178.547,
    "springName": "FUMAROLES ON LITTLE SITKIN ISLAND",
    "type": "",
    "tempF": "",
    "access": "",
    "fee": "",
    "externalLink": ""
  },
  {
    "id": "s000060",
    "country": "USA",
    "adminDiv": "Alaska",
    "latitude": 51.963,
    "longitude": 178.491,
    "springName": "FUMAROLES ON LITTLE SITKIN ISLAND",
    "type": "",
    "tempF": "",
    "access": "",
    "fee": "",
    "externalLink": ""
  },
  {
    "id": "s000061",
    "country": "USA",
    "adminDiv": "Alaska",
    "latitude": 51.967,
    "longitude": 178.444,
    "springName": "FUMAROLES ON LITTLE SITKIN ISLAND",
    "type": "",
    "tempF": "",
    "access": "",
    "fee": "",
    "externalLink": ""
  },
  {
    "id": "s000062",
    "country": "USA",
    "adminDiv": "Alaska",
    "latitude": 51.94,
    "longitude": 178.5,
    "springName": "HOT SPRING ON LITTLE SITKIN ISLAND",
    "type": "",
    "tempF": "",
    "access": "",
    "fee": "",
    "externalLink": ""
  },
  {
    "id": "s000063",
    "country": "USA",
    "adminDiv": "Alaska",
    "latitude": 64.924,
    "longitude": -154.837,
    "springName": "HORNER HOT SPRINGS",
    "type": "",
    "tempF": 117,
    "access": "",
    "fee": "",
    "externalLink": ""
  },
  {
    "id": "s000064",
    "country": "USA",
    "adminDiv": "Alaska",
    "latitude": 61.058,
    "longitude": -160.692,
    "springName": "HOT SPRING NEAR TULUKSAK RIVER",
    "type": "",
    "tempF": "H",
    "access": "",
    "fee": "",
    "externalLink": ""
  },
  {
    "id": "s000065",
    "country": "USA",
    "adminDiv": "Alaska",
    "latitude": 61.2,
    "longitude": -159.863,
    "springName": "HOT SPRINGS NEAR OPHIR CREEK",
    "type": "",
    "tempF": 145,
    "access": "",
    "fee": "",
    "externalLink": ""
  },
  {
    "id": "s000066",
    "country": "USA",
    "adminDiv": "Alaska",
    "latitude": 52.84,
    "longitude": -169.9,
    "springName": "CHUGINADAK HOT SPRINGS",
    "type": "",
    "tempF": "H",
    "access": "",
    "fee": "",
    "externalLink": ""
  },
  {
    "id": "s000067",
    "country": "USA",
    "adminDiv": "Alaska",
    "latitude": 52.96,
    "longitude": -169.71,
    "springName": "HOT SPRING ON KAGAMIL ISLAND",
    "type": "",
    "tempF": "H",
    "access": "",
    "fee": "",
    "externalLink": ""
  },
  {
    "id": "s000068",
    "country": "USA",
    "adminDiv": "Alaska",
    "latitude": 52.358,
    "longitude": -172.317,
    "springName": "HOT SPRING ON SEGUAM ISLAND",
    "type": "",
    "tempF": "H",
    "access": "",
    "fee": "",
    "externalLink": ""
  },
  {
    "id": "s000069",
    "country": "USA",
    "adminDiv": "Alaska",
    "latitude": 66.367,
    "longitude": -156.767,
    "springName": "HOT SPRINGS NEAR DIVISION BM",
    "type": "",
    "tempF": 140,
    "access": "",
    "fee": "",
    "externalLink": ""
  },
  {
    "id": "s000070",
    "country": "USA",
    "adminDiv": "Alaska",
    "latitude": 66.15,
    "longitude": -157.117,
    "springName": "HOT SPRINGS NEAR SOUTH BM",
    "type": "",
    "tempF": 122,
    "access": "",
    "fee": "",
    "externalLink": ""
  },
  {
    "id": "s000071",
    "country": "USA",
    "adminDiv": "Alaska",
    "latitude": 66.233,
    "longitude": -157.583,
    "springName": "HOT SPRINGS ON HAWK RIVER",
    "type": "",
    "tempF": 122,
    "access": "",
    "fee": "",
    "externalLink": ""
  },
  {
    "id": "s000072",
    "country": "USA",
    "adminDiv": "Alaska",
    "latitude": 66.383,
    "longitude": -157.517,
    "springName": "WARM SPRING NEAR PURCELL MOUNTAIN",
    "type": "",
    "tempF": 68,
    "access": "",
    "fee": "",
    "externalLink": ""
  },
  {
    "id": "s000073",
    "country": "USA",
    "adminDiv": "Alaska",
    "latitude": 57.085,
    "longitude": -134.839,
    "springName": "BARANOF WARM SPRINGS",
    "type": "",
    "tempF": 124,
    "access": "",
    "fee": "",
    "externalLink": ""
  },
  {
    "id": "s000074",
    "country": "USA",
    "adminDiv": "Alaska",
    "latitude": 57.348,
    "longitude": -135.385,
    "springName": "HOT SPRING NEAR FISH BAY",
    "type": "",
    "tempF": 117,
    "access": "",
    "fee": "",
    "externalLink": ""
  },
  {
    "id": "s000075",
    "country": "USA",
    "adminDiv": "Alaska",
    "latitude": 57.771,
    "longitude": -135.82,
    "springName": "HOT SPRING NORTH ARM PERIL STRAIT",
    "type": "",
    "tempF": 100,
    "access": "",
    "fee": "",
    "externalLink": ""
  },
  {
    "id": "s000076",
    "country": "USA",
    "adminDiv": "Alaska",
    "latitude": 57.644,
    "longitude": -135.333,
    "springName": "NYLEN HOT SPRINGS",
    "type": "",
    "tempF": 120,
    "access": "",
    "fee": "",
    "externalLink": ""
  },
  {
    "id": "s000077",
    "country": "USA",
    "adminDiv": "Alaska",
    "latitude": 57.781,
    "longitude": -135.217,
    "springName": "TENAKEE HOT SPRINGS",
    "type": "",
    "tempF": 109,
    "access": "",
    "fee": "",
    "externalLink": ""
  },
  {
    "id": "s000078",
    "country": "USA",
    "adminDiv": "Alaska",
    "latitude": 57.807,
    "longitude": -136.341,
    "springName": "WHITE SULPHUR SPRINGS (HOONIAH H S)",
    "type": "",
    "tempF": 111,
    "access": "",
    "fee": "",
    "externalLink": ""
  },
  {
    "id": "s000079",
    "country": "USA",
    "adminDiv": "Alaska",
    "latitude": 61.363,
    "longitude": -157.733,
    "springName": "HOT SPRINGS ON UPPER CHUILNUK RIVER",
    "type": "",
    "tempF": "H",
    "access": "",
    "fee": "",
    "externalLink": ""
  },
  {
    "id": "s000080",
    "country": "USA",
    "adminDiv": "Alaska",
    "latitude": 64.85,
    "longitude": -162.3,
    "springName": "CLEAR CREEK HOT SPRINGS",
    "type": "",
    "tempF": 149,
    "access": "",
    "fee": "",
    "externalLink": ""
  },
  {
    "id": "s000081",
    "country": "USA",
    "adminDiv": "Alaska",
    "latitude": 64.7,
    "longitude": -162.467,
    "springName": "HOT SPRING NEAR KWINIUK RIVER",
    "type": "",
    "tempF": 106,
    "access": "",
    "fee": "",
    "externalLink": ""
  },
  {
    "id": "s000082",
    "country": "USA",
    "adminDiv": "Alaska",
    "latitude": 67.403,
    "longitude": -153.883,
    "springName": "HOT SPRING NEAR ARRIGETCH PEAKS",
    "type": "",
    "tempF": "W",
    "access": "",
    "fee": "",
    "externalLink": ""
  },
  {
    "id": "s000083",
    "country": "USA",
    "adminDiv": "Alaska",
    "latitude": 67.283,
    "longitude": -155.067,
    "springName": "REED RIVER HOT SPRING",
    "type": "",
    "tempF": 122,
    "access": "",
    "fee": "",
    "externalLink": ""
  },
  {
    "id": "s000084",
    "country": "USA",
    "adminDiv": "Alaska",
    "latitude": 65.45,
    "longitude": -150,
    "springName": "HOT SPRING NEAR LITTLE MINOOK CR",
    "type": "",
    "tempF": "",
    "access": "",
    "fee": "",
    "externalLink": ""
  },
  {
    "id": "s000085",
    "country": "USA",
    "adminDiv": "Alaska",
    "latitude": 65.983,
    "longitude": -150.56,
    "springName": "HOT SPRINGS ON LOWER RAY RIVER",
    "type": "",
    "tempF": 142,
    "access": "",
    "fee": "",
    "externalLink": ""
  },
  {
    "id": "s000086",
    "country": "USA",
    "adminDiv": "Alaska",
    "latitude": 65.81,
    "longitude": -151.237,
    "springName": "KILO HOT SPRING",
    "type": "",
    "tempF": 122,
    "access": "",
    "fee": "",
    "externalLink": ""
  },
  {
    "id": "s000087",
    "country": "USA",
    "adminDiv": "Alaska",
    "latitude": 65.006,
    "longitude": -150.633,
    "springName": "MANLEY HOT SPRINGS",
    "type": "",
    "tempF": 133,
    "access": "",
    "fee": "",
    "externalLink": ""
  },
  {
    "id": "s000088",
    "country": "USA",
    "adminDiv": "Alaska",
    "latitude": 65.963,
    "longitude": -150.919,
    "springName": "RAY RIVER HOT SPRING",
    "type": "",
    "tempF": 117,
    "access": "",
    "fee": "",
    "externalLink": ""
  },
  {
    "id": "s000089",
    "country": "USA",
    "adminDiv": "Alaska",
    "latitude": 61.267,
    "longitude": -151.238,
    "springName": "HOT LAKE IN BOTTOM OF CRATER PEAK",
    "type": "",
    "tempF": "H",
    "access": "",
    "fee": "",
    "externalLink": ""
  },
  {
    "id": "s000090",
    "country": "USA",
    "adminDiv": "Alaska",
    "latitude": 57.865,
    "longitude": -156.499,
    "springName": "GAS ROCKS HOT SPRING",
    "type": "",
    "tempF": 127,
    "access": "",
    "fee": "",
    "externalLink": ""
  },
  {
    "id": "s000091",
    "country": "USA",
    "adminDiv": "Alaska",
    "latitude": 57.178,
    "longitude": -157.015,
    "springName": "HOT SPRING NEAR MOTHER GOOSE LAKE",
    "type": "",
    "tempF": 138,
    "access": "",
    "fee": "",
    "externalLink": ""
  },
  {
    "id": "s000092",
    "country": "USA",
    "adminDiv": "Alaska",
    "latitude": 57.831,
    "longitude": -156.513,
    "springName": "W UKINEK SPRING",
    "type": "",
    "tempF": 178,
    "access": "",
    "fee": "",
    "externalLink": ""
  },
  {
    "id": "s000093",
    "country": "USA",
    "adminDiv": "Alaska",
    "latitude": 53.233,
    "longitude": -168.3,
    "springName": "HOT SPRING ON UMNAK ISLAND",
    "type": "",
    "tempF": 149,
    "access": "",
    "fee": "",
    "externalLink": ""
  },
  {
    "id": "s000094",
    "country": "USA",
    "adminDiv": "Alaska",
    "latitude": 53.213,
    "longitude": -168.463,
    "springName": "HOT SPRINGS NEAR GEYSER BIGHT",
    "type": "",
    "tempF": 216,
    "access": "",
    "fee": "",
    "externalLink": ""
  },
  {
    "id": "s000095",
    "country": "USA",
    "adminDiv": "Alaska",
    "latitude": 53.207,
    "longitude": -168.445,
    "springName": "HOT SPRINGS NEAR GEYSER BIGHT",
    "type": "",
    "tempF": "H",
    "access": "",
    "fee": "",
    "externalLink": ""
  },
  {
    "id": "s000096",
    "country": "USA",
    "adminDiv": "Alaska",
    "latitude": 53.223,
    "longitude": -168.477,
    "springName": "HOT SPRINGS NEAR GEYSER BIGHT",
    "type": "",
    "tempF": 214,
    "access": "",
    "fee": "",
    "externalLink": ""
  },
  {
    "id": "s000097",
    "country": "USA",
    "adminDiv": "Alaska",
    "latitude": 53.242,
    "longitude": -168.365,
    "springName": "HOT SPRINGS NEAR HOT SPRINGS COVE",
    "type": "",
    "tempF": 192,
    "access": "",
    "fee": "",
    "externalLink": ""
  },
  {
    "id": "s000098",
    "country": "USA",
    "adminDiv": "Alaska",
    "latitude": 53.253,
    "longitude": -168.358,
    "springName": "HOT SPRINGS NEAR HOT SPRINGS COVE",
    "type": "",
    "tempF": 158,
    "access": "",
    "fee": "",
    "externalLink": ""
  },
  {
    "id": "s000099",
    "country": "USA",
    "adminDiv": "Alaska",
    "latitude": 53.95,
    "longitude": -168.037,
    "springName": "HOT SPRINGS ON BOGOSLOF ISLAND",
    "type": "",
    "tempF": "H",
    "access": "",
    "fee": "",
    "externalLink": ""
  },
  {
    "id": "s000100",
    "country": "USA",
    "adminDiv": "Alaska",
    "latitude": 53.443,
    "longitude": -168.092,
    "springName": "THERMAL SPRINGS IN OKMOK CALDERA",
    "type": "",
    "tempF": 212,
    "access": "",
    "fee": "",
    "externalLink": ""
  },
  {
    "id": "s000101",
    "country": "USA",
    "adminDiv": "Alaska",
    "latitude": 53.848,
    "longitude": -166.873,
    "springName": "HOT SPRINGS NEAR MAKUSHIN VOLCANO",
    "type": "",
    "tempF": 94,
    "access": "",
    "fee": "",
    "externalLink": ""
  },
  {
    "id": "s000102",
    "country": "USA",
    "adminDiv": "Alaska",
    "latitude": 53.851,
    "longitude": -166.918,
    "springName": "HOT SPRINGS NEAR MAKUSHIN VOLCANO",
    "type": "",
    "tempF": "H",
    "access": "",
    "fee": "",
    "externalLink": ""
  },
  {
    "id": "s000103",
    "country": "USA",
    "adminDiv": "Alaska",
    "latitude": 53.877,
    "longitude": -166.448,
    "springName": "HOT SPRINGS NEAR SUMMER BAY",
    "type": "",
    "tempF": "H",
    "access": "",
    "fee": "",
    "externalLink": ""
  },
  {
    "id": "s000104",
    "country": "USA",
    "adminDiv": "Alaska",
    "latitude": 53.892,
    "longitude": -166.93,
    "springName": "MAKUSHIN VOLCANO FUMAROLES",
    "type": "",
    "tempF": 310,
    "access": "",
    "fee": "",
    "externalLink": ""
  },
  {
    "id": "s000105",
    "country": "USA",
    "adminDiv": "Alaska",
    "latitude": 54.66,
    "longitude": -164.55,
    "springName": "HOT SPRING ON UNIMAK ISLAND",
    "type": "",
    "tempF": "H",
    "access": "",
    "fee": "",
    "externalLink": ""
  },
  {
    "id": "s000106",
    "country": "USA",
    "adminDiv": "Alaska",
    "latitude": 54.157,
    "longitude": -165.85,
    "springName": "HOT SPRINGS NEAR HOT SPRINGS BAY",
    "type": "",
    "tempF": 181,
    "access": "",
    "fee": "",
    "externalLink": ""
  },
  {
    "id": "s000107",
    "country": "USA",
    "adminDiv": "Alaska",
    "latitude": 54.18,
    "longitude": -165.41,
    "springName": "HOT SPRINGS ON AKUN ISLAND",
    "type": "",
    "tempF": "H",
    "access": "",
    "fee": "",
    "externalLink": ""
  },
  {
    "id": "s000108",
    "country": "USA",
    "adminDiv": "Alaska",
    "latitude": 54.23,
    "longitude": -165.66,
    "springName": "HOT SPRINGS ON AKUN ISLAND",
    "type": "",
    "tempF": "H",
    "access": "",
    "fee": "",
    "externalLink": ""
  },
  {
    "id": "s000109",
    "country": "USA",
    "adminDiv": "Arkansas",
    "latitude": 34.542,
    "longitude": -93.024,
    "springName": "BIG CHALYBEATE SPRING",
    "type": "",
    "tempF": 79,
    "access": "",
    "fee": "",
    "externalLink": ""
  },
  {
    "id": "s000110",
    "country": "USA",
    "adminDiv": "Arkansas",
    "latitude": 34.384,
    "longitude": -93.607,
    "springName": "CADDO GAP SPRINGS",
    "type": "",
    "tempF": 95,
    "access": "",
    "fee": "",
    "externalLink": ""
  },
  {
    "id": "s000111",
    "country": "USA",
    "adminDiv": "Arkansas",
    "latitude": 34.513,
    "longitude": -93.053,
    "springName": "HOT SPRINGS",
    "type": "",
    "tempF": 147,
    "access": "",
    "fee": "",
    "externalLink": ""
  },
  {
    "id": "s000112",
    "country": "USA",
    "adminDiv": "Arkansas",
    "latitude": 34.406,
    "longitude": -93.908,
    "springName": "SPRING ON LITTLE MISSOURI RIVER",
    "type": "",
    "tempF": 74,
    "access": "",
    "fee": "",
    "externalLink": ""
  },
  {
    "id": "s000113",
    "country": "USA",
    "adminDiv": "Arkansas",
    "latitude": 34.321,
    "longitude": -93.739,
    "springName": "SPRING ON REDLAND MOUNTAIN",
    "type": "",
    "tempF": 77,
    "access": "",
    "fee": "",
    "externalLink": ""
  },
  {
    "id": "s000114",
    "country": "USA",
    "adminDiv": "Arkansas",
    "latitude": 36.48,
    "longitude": -91.053,
    "springName": "WARM SPRINGS",
    "type": "",
    "tempF": 82,
    "access": "",
    "fee": "",
    "externalLink": ""
  },
  {
    "id": "s000115",
    "country": "USA",
    "adminDiv": "Arizona",
    "latitude": 32.984,
    "longitude": -113.324,
    "springName": "AGUA CALIENTE SPRINGS",
    "type": "",
    "tempF": 102,
    "access": "",
    "fee": "",
    "externalLink": ""
  },
  {
    "id": "s000116",
    "country": "USA",
    "adminDiv": "Arizona",
    "latitude": 33.055,
    "longitude": -109.295,
    "springName": "CLIFTON HOT SPRINGS",
    "type": "",
    "tempF": 102,
    "access": "",
    "fee": "",
    "externalLink": ""
  },
  {
    "id": "s000117",
    "country": "USA",
    "adminDiv": "Arizona",
    "latitude": 33.046,
    "longitude": -109.44,
    "springName": "EAGLE CREEK HOT SPRINGS",
    "type": "",
    "tempF": 97,
    "access": "",
    "fee": "",
    "externalLink": ""
  },
  {
    "id": "s000118",
    "country": "USA",
    "adminDiv": "Arizona",
    "latitude": 33.008,
    "longitude": -109.778,
    "springName": "GRAPEVINE SPRING",
    "type": "",
    "tempF": 91,
    "access": "",
    "fee": "",
    "externalLink": ""
  },
  {
    "id": "s000119",
    "country": "USA",
    "adminDiv": "Arizona",
    "latitude": 33.4,
    "longitude": -109.152,
    "springName": "HANNAH HOT SPRING",
    "type": "",
    "tempF": 133,
    "access": "",
    "fee": "",
    "externalLink": ""
  },
  {
    "id": "s000120",
    "country": "USA",
    "adminDiv": "Arizona",
    "latitude": 33.08,
    "longitude": -109.303,
    "springName": "HOT SPRING",
    "type": "",
    "tempF": 138,
    "access": "",
    "fee": "",
    "externalLink": ""
  },
  {
    "id": "s000121",
    "country": "USA",
    "adminDiv": "Arizona",
    "latitude": 33.075,
    "longitude": -109.298,
    "springName": "SEEP",
    "type": "",
    "tempF": 95,
    "access": "",
    "fee": "",
    "externalLink": ""
  },
  {
    "id": "s000122",
    "country": "USA",
    "adminDiv": "Arizona",
    "latitude": 33.068,
    "longitude": -109.975,
    "springName": "WARM SPRING",
    "type": "",
    "tempF": 90,
    "access": "",
    "fee": "",
    "externalLink": ""
  },
  {
    "id": "s000123",
    "country": "USA",
    "adminDiv": "Arizona",
    "latitude": 33.062,
    "longitude": -109.482,
    "springName": "WARM SPRING",
    "type": "",
    "tempF": 73,
    "access": "",
    "fee": "",
    "externalLink": ""
  },
  {
    "id": "s000124",
    "country": "USA",
    "adminDiv": "Arizona",
    "latitude": 31.673,
    "longitude": -109.902,
    "springName": "ANTELOPE SPRING",
    "type": "",
    "tempF": 79,
    "access": "",
    "fee": "",
    "externalLink": ""
  },
  {
    "id": "s000125",
    "country": "USA",
    "adminDiv": "Arizona",
    "latitude": 31.362,
    "longitude": -109.265,
    "springName": "ASTIN SPRING",
    "type": "",
    "tempF": 75,
    "access": "",
    "fee": "",
    "externalLink": ""
  },
  {
    "id": "s000126",
    "country": "USA",
    "adminDiv": "Arizona",
    "latitude": 31.592,
    "longitude": -109.51,
    "springName": "LEWIS SPRING",
    "type": "",
    "tempF": 68,
    "access": "",
    "fee": "",
    "externalLink": ""
  },
  {
    "id": "s000127",
    "country": "USA",
    "adminDiv": "Arizona",
    "latitude": 32.741,
    "longitude": -114.068,
    "springName": "RADIUM HOT SPRINGS",
    "type": "",
    "tempF": 140,
    "access": "",
    "fee": "",
    "externalLink": ""
  },
  {
    "id": "s000128",
    "country": "USA",
    "adminDiv": "Arizona",
    "latitude": 36.196,
    "longitude": -113.081,
    "springName": "LAVA WARM SPRINGS",
    "type": "",
    "tempF": 90,
    "access": "",
    "fee": "",
    "externalLink": ""
  },
  {
    "id": "s000129",
    "country": "USA",
    "adminDiv": "Arizona",
    "latitude": 36.418,
    "longitude": -113.956,
    "springName": "PAKOON SPRINGS",
    "type": "",
    "tempF": 86,
    "access": "",
    "fee": "",
    "externalLink": ""
  },
  {
    "id": "s000130",
    "country": "USA",
    "adminDiv": "Arizona",
    "latitude": 36.895,
    "longitude": -113.913,
    "springName": "SPRINGS",
    "type": "",
    "tempF": 79,
    "access": "",
    "fee": "",
    "externalLink": ""
  },
  {
    "id": "s000131",
    "country": "USA",
    "adminDiv": "Arizona",
    "latitude": 34.649,
    "longitude": -111.744,
    "springName": "SODA SPRING",
    "type": "",
    "tempF": 75,
    "access": "",
    "fee": "",
    "externalLink": ""
  },
  {
    "id": "s000132",
    "country": "USA",
    "adminDiv": "Arizona",
    "latitude": 34.405,
    "longitude": -111.602,
    "springName": "SPRING",
    "type": "",
    "tempF": 72,
    "access": "",
    "fee": "",
    "externalLink": ""
  },
  {
    "id": "s000133",
    "country": "USA",
    "adminDiv": "Arizona",
    "latitude": 34.076,
    "longitude": -111.708,
    "springName": "SPRING (HOT)",
    "type": "",
    "tempF": 99,
    "access": "",
    "fee": "",
    "externalLink": ""
  },
  {
    "id": "s000134",
    "country": "USA",
    "adminDiv": "Arizona",
    "latitude": 34.32,
    "longitude": -111.453,
    "springName": "TONTO NATURAL BRIDGE SPRING",
    "type": "",
    "tempF": 72,
    "access": "",
    "fee": "",
    "externalLink": ""
  },
  {
    "id": "s000135",
    "country": "USA",
    "adminDiv": "Arizona",
    "latitude": 34.357,
    "longitude": -111.71,
    "springName": "VERDE HOT SPRINGS",
    "type": "",
    "tempF": 104,
    "access": "",
    "fee": "",
    "externalLink": ""
  },
  {
    "id": "s000136",
    "country": "USA",
    "adminDiv": "Arizona",
    "latitude": 35.984,
    "longitude": -114.742,
    "springName": "HOT SPRING",
    "type": "",
    "tempF": "H",
    "access": "",
    "fee": "",
    "externalLink": ""
  },
  {
    "id": "s000137",
    "country": "USA",
    "adminDiv": "Arizona",
    "latitude": 35.96,
    "longitude": -114.725,
    "springName": "HOT SPRING",
    "type": "",
    "tempF": 86,
    "access": "",
    "fee": "",
    "externalLink": ""
  },
  {
    "id": "s000138",
    "country": "USA",
    "adminDiv": "Arizona",
    "latitude": 31.943,
    "longitude": -113.013,
    "springName": "QUITOBAQUITO SPRINGS",
    "type": "",
    "tempF": 90,
    "access": "",
    "fee": "",
    "externalLink": ""
  },
  {
    "id": "s000139",
    "country": "USA",
    "adminDiv": "Arizona",
    "latitude": 36.509,
    "longitude": -111.852,
    "springName": "COLORADO POOL",
    "type": "",
    "tempF": 86,
    "access": "",
    "fee": "",
    "externalLink": ""
  },
  {
    "id": "s000140",
    "country": "USA",
    "adminDiv": "Arizona",
    "latitude": 33.51,
    "longitude": -110.403,
    "springName": "CASSADORE SPRING",
    "type": "",
    "tempF": 73,
    "access": "",
    "fee": "",
    "externalLink": ""
  },
  {
    "id": "s000141",
    "country": "USA",
    "adminDiv": "Arizona",
    "latitude": 33.17,
    "longitude": -110.528,
    "springName": "COOLIDGE DAM WARM SPRING",
    "type": "",
    "tempF": 99,
    "access": "",
    "fee": "",
    "externalLink": ""
  },
  {
    "id": "s000142",
    "country": "USA",
    "adminDiv": "Arizona",
    "latitude": 33.152,
    "longitude": -110.639,
    "springName": "MESCAL WARM SPRING",
    "type": "",
    "tempF": 84,
    "access": "",
    "fee": "",
    "externalLink": ""
  },
  {
    "id": "s000143",
    "country": "USA",
    "adminDiv": "Arizona",
    "latitude": 33.209,
    "longitude": -110.818,
    "springName": "PIONEER SPRING",
    "type": "",
    "tempF": 91,
    "access": "",
    "fee": "",
    "externalLink": ""
  },
  {
    "id": "s000144",
    "country": "USA",
    "adminDiv": "Arizona",
    "latitude": 33.669,
    "longitude": -111.165,
    "springName": "ROOSEVELT DAM SPRINGS",
    "type": "",
    "tempF": 118,
    "access": "",
    "fee": "",
    "externalLink": ""
  },
  {
    "id": "s000145",
    "country": "USA",
    "adminDiv": "Arizona",
    "latitude": 33.831,
    "longitude": -110.574,
    "springName": "SALT BANKS",
    "type": "",
    "tempF": 78,
    "access": "",
    "fee": "",
    "externalLink": ""
  },
  {
    "id": "s000146",
    "country": "USA",
    "adminDiv": "Arizona",
    "latitude": 33.253,
    "longitude": -110.703,
    "springName": "SPRING",
    "type": "",
    "tempF": 75,
    "access": "",
    "fee": "",
    "externalLink": ""
  },
  {
    "id": "s000147",
    "country": "USA",
    "adminDiv": "Arizona",
    "latitude": 33.163,
    "longitude": -110.662,
    "springName": "SPRING",
    "type": "",
    "tempF": 82,
    "access": "",
    "fee": "",
    "externalLink": ""
  },
  {
    "id": "s000148",
    "country": "USA",
    "adminDiv": "Arizona",
    "latitude": 33.78,
    "longitude": -110.317,
    "springName": "WARM SPRING",
    "type": "",
    "tempF": "W",
    "access": "",
    "fee": "",
    "externalLink": ""
  },
  {
    "id": "s000149",
    "country": "USA",
    "adminDiv": "Arizona",
    "latitude": 33.438,
    "longitude": -110.213,
    "springName": "WARM SPRINGS",
    "type": "",
    "tempF": 86,
    "access": "",
    "fee": "",
    "externalLink": ""
  },
  {
    "id": "s000150",
    "country": "USA",
    "adminDiv": "Arizona",
    "latitude": 33.198,
    "longitude": -110.668,
    "springName": null,
    "type": "",
    "tempF": 99,
    "access": "",
    "fee": "",
    "externalLink": ""
  },
  {
    "id": "s000151",
    "country": "USA",
    "adminDiv": "Arizona",
    "latitude": 33.748,
    "longitude": -110.235,
    "springName": null,
    "type": "",
    "tempF": 83,
    "access": "",
    "fee": "",
    "externalLink": ""
  },
  {
    "id": "s000152",
    "country": "USA",
    "adminDiv": "Arizona",
    "latitude": 34.925,
    "longitude": -114.221,
    "springName": "CALICHE SPRING",
    "type": "",
    "tempF": 79,
    "access": "",
    "fee": "",
    "externalLink": ""
  },
  {
    "id": "s000153",
    "country": "USA",
    "adminDiv": "Arizona",
    "latitude": 34.896,
    "longitude": -114.308,
    "springName": "OATMAN WARM SPRINGS",
    "type": "",
    "tempF": 91,
    "access": "",
    "fee": "",
    "externalLink": ""
  },
  {
    "id": "s000154",
    "country": "USA",
    "adminDiv": "Arizona",
    "latitude": 31.695,
    "longitude": -110.963,
    "springName": "AGUA CALIENTE SPRING",
    "type": "",
    "tempF": 90,
    "access": "",
    "fee": "",
    "externalLink": ""
  },
  {
    "id": "s000155",
    "country": "USA",
    "adminDiv": "Arizona",
    "latitude": 31.637,
    "longitude": -110.703,
    "springName": "MONKEY SPRING",
    "type": "",
    "tempF": 82,
    "access": "",
    "fee": "",
    "externalLink": ""
  },
  {
    "id": "s000156",
    "country": "USA",
    "adminDiv": "Arizona",
    "latitude": 33.988,
    "longitude": -112.362,
    "springName": "CASTLE HOT SPRINGS",
    "type": "",
    "tempF": 115,
    "access": "",
    "fee": "",
    "externalLink": ""
  },
  {
    "id": "s000157",
    "country": "USA",
    "adminDiv": "Arizona",
    "latitude": 33.915,
    "longitude": -112.332,
    "springName": "MITCHELL SPRING",
    "type": "",
    "tempF": 79,
    "access": "",
    "fee": "",
    "externalLink": ""
  },
  {
    "id": "s000158",
    "country": "USA",
    "adminDiv": "Arizona",
    "latitude": 34.695,
    "longitude": -113.572,
    "springName": "COFER HOT SPRING",
    "type": "",
    "tempF": 97,
    "access": "",
    "fee": "",
    "externalLink": ""
  },
  {
    "id": "s000159",
    "country": "USA",
    "adminDiv": "Arizona",
    "latitude": 34.563,
    "longitude": -113.497,
    "springName": "KAISER HOT SPRING",
    "type": "",
    "tempF": 99,
    "access": "",
    "fee": "",
    "externalLink": ""
  },
  {
    "id": "s000160",
    "country": "USA",
    "adminDiv": "Arizona",
    "latitude": 34.445,
    "longitude": -112.693,
    "springName": "SPRING",
    "type": "",
    "tempF": 72,
    "access": "",
    "fee": "",
    "externalLink": ""
  },
  {
    "id": "s000161",
    "country": "USA",
    "adminDiv": "Arizona",
    "latitude": 34.91,
    "longitude": -113.608,
    "springName": "TOM BROWN WARM SPRING",
    "type": "",
    "tempF": 82,
    "access": "",
    "fee": "",
    "externalLink": ""
  },
  {
    "id": "s000162",
    "country": "USA",
    "adminDiv": "Arizona",
    "latitude": 34.436,
    "longitude": -109.402,
    "springName": "SALADO SPRINGS",
    "type": "",
    "tempF": 72,
    "access": "",
    "fee": "",
    "externalLink": ""
  },
  {
    "id": "s000163",
    "country": "USA",
    "adminDiv": "Arizona",
    "latitude": 32.971,
    "longitude": -109.35,
    "springName": "GILLARD HOT SPRINGS",
    "type": "",
    "tempF": 180,
    "access": "",
    "fee": "",
    "externalLink": ""
  },
  {
    "id": "s000164",
    "country": "USA",
    "adminDiv": "Arizona",
    "latitude": 32.998,
    "longitude": -109.901,
    "springName": "INDIAN HOT SPRINGS",
    "type": "",
    "tempF": 118,
    "access": "",
    "fee": "",
    "externalLink": ""
  },
  {
    "id": "s000165",
    "country": "USA",
    "adminDiv": "Arizona",
    "latitude": 32.281,
    "longitude": -110.73,
    "springName": "AGUA CALIENTE",
    "type": "",
    "tempF": 86,
    "access": "",
    "fee": "",
    "externalLink": ""
  },
  {
    "id": "s000166",
    "country": "USA",
    "adminDiv": "Arizona",
    "latitude": 32.336,
    "longitude": -110.24,
    "springName": "HOOKERS HOT SPRINGS",
    "type": "",
    "tempF": 127,
    "access": "",
    "fee": "",
    "externalLink": ""
  },
  {
    "id": "s000167",
    "country": "USA",
    "adminDiv": "Arizona",
    "latitude": 32.337,
    "longitude": -110.708,
    "springName": "MERCER SPRING",
    "type": "",
    "tempF": 77,
    "access": "",
    "fee": "",
    "externalLink": ""
  },
  {
    "id": "s000168",
    "country": "USA",
    "adminDiv": "Arizona",
    "latitude": 32.327,
    "longitude": -110.228,
    "springName": "N-O SPRING",
    "type": "",
    "tempF": 73,
    "access": "",
    "fee": "",
    "externalLink": ""
  },
  {
    "id": "s000169",
    "country": "USA",
    "adminDiv": "Arizona",
    "latitude": 32.983,
    "longitude": -110.373,
    "springName": "WARM SPRING",
    "type": "",
    "tempF": 79,
    "access": "",
    "fee": "",
    "externalLink": ""
  },
  {
    "id": "s000170",
    "country": "USA",
    "adminDiv": "Arizona",
    "latitude": 32.345,
    "longitude": -110.247,
    "springName": "WARM SPRINGS",
    "type": "",
    "tempF": 91,
    "access": "",
    "fee": "",
    "externalLink": ""
  },
  {
    "id": "s000171",
    "country": "USA",
    "adminDiv": "Arizona",
    "latitude": 35.213,
    "longitude": -113.425,
    "springName": "CASA GRANDE SPRING",
    "type": "",
    "tempF": 72,
    "access": "",
    "fee": "",
    "externalLink": ""
  },
  {
    "id": "s000172",
    "country": "USA",
    "adminDiv": "Arizona",
    "latitude": 35.169,
    "longitude": -113.851,
    "springName": "FROST MINE SPRING",
    "type": "",
    "tempF": 70,
    "access": "",
    "fee": "",
    "externalLink": ""
  },
  {
    "id": "s000173",
    "country": "USA",
    "adminDiv": "Arizona",
    "latitude": 35.077,
    "longitude": -113.267,
    "springName": "TROUT CREEK SPRING",
    "type": "",
    "tempF": 81,
    "access": "",
    "fee": "",
    "externalLink": ""
  },
  {
    "id": "s000174",
    "country": "USA",
    "adminDiv": "Arizona",
    "latitude": 35.11,
    "longitude": -113.81,
    "springName": null,
    "type": "",
    "tempF": 73,
    "access": "",
    "fee": "",
    "externalLink": ""
  },
  {
    "id": "s000175",
    "country": "USA",
    "adminDiv": "California",
    "latitude": 41.167,
    "longitude": -120.032,
    "springName": "BARE RANCH SPRING",
    "type": "",
    "tempF": 90,
    "access": "",
    "fee": "",
    "externalLink": ""
  },
  {
    "id": "s000176",
    "country": "USA",
    "adminDiv": "California",
    "latitude": 41.143,
    "longitude": -121.11,
    "springName": "BASSETT HOT SPRINGS",
    "type": "",
    "tempF": 174,
    "access": "",
    "fee": "",
    "externalLink": ""
  },
  {
    "id": "s000177",
    "country": "USA",
    "adminDiv": "California",
    "latitude": 41.025,
    "longitude": -121.924,
    "springName": "BIG BEND HOT SPRINGS",
    "type": "",
    "tempF": 180,
    "access": "",
    "fee": "",
    "externalLink": ""
  },
  {
    "id": "s000178",
    "country": "USA",
    "adminDiv": "California",
    "latitude": 41.492,
    "longitude": -120.7,
    "springName": "ESSEX SPRINGS",
    "type": "",
    "tempF": 91,
    "access": "",
    "fee": "",
    "externalLink": ""
  },
  {
    "id": "s000179",
    "country": "USA",
    "adminDiv": "California",
    "latitude": 41.86,
    "longitude": -120.158,
    "springName": "FORT BIDWELL HOT SPRING",
    "type": "",
    "tempF": 113,
    "access": "",
    "fee": "",
    "externalLink": ""
  },
  {
    "id": "s000180",
    "country": "USA",
    "adminDiv": "California",
    "latitude": 41.607,
    "longitude": -121.523,
    "springName": "HOT SPOT",
    "type": "",
    "tempF": 191,
    "access": "",
    "fee": "",
    "externalLink": ""
  },
  {
    "id": "s000181",
    "country": "USA",
    "adminDiv": "California",
    "latitude": 41.012,
    "longitude": -121.274,
    "springName": "HOT SPRINGS",
    "type": "",
    "tempF": "H",
    "access": "",
    "fee": "",
    "externalLink": ""
  },
  {
    "id": "s000182",
    "country": "USA",
    "adminDiv": "California",
    "latitude": 41.266,
    "longitude": -120.08,
    "springName": "HOT SPRINGS (MENLO BATHS)",
    "type": "",
    "tempF": 135,
    "access": "",
    "fee": "",
    "externalLink": ""
  },
  {
    "id": "s000183",
    "country": "USA",
    "adminDiv": "California",
    "latitude": 41.534,
    "longitude": -120.078,
    "springName": "HOT SPRINGS (SURPRISE VALLEY)",
    "type": "",
    "tempF": 208,
    "access": "",
    "fee": "",
    "externalLink": ""
  },
  {
    "id": "s000184",
    "country": "USA",
    "adminDiv": "California",
    "latitude": 41.036,
    "longitude": -121.926,
    "springName": "HUNT HOT SPRING",
    "type": "",
    "tempF": 136,
    "access": "",
    "fee": "",
    "externalLink": ""
  },
  {
    "id": "s000185",
    "country": "USA",
    "adminDiv": "California",
    "latitude": 41.126,
    "longitude": -121.028,
    "springName": "KELLOG HOT SPRINGS",
    "type": "",
    "tempF": 172,
    "access": "",
    "fee": "",
    "externalLink": ""
  },
  {
    "id": "s000186",
    "country": "USA",
    "adminDiv": "California",
    "latitude": 41.45,
    "longitude": -120.834,
    "springName": "KELLY HOT SPRING",
    "type": "",
    "tempF": 198,
    "access": "",
    "fee": "",
    "externalLink": ""
  },
  {
    "id": "s000187",
    "country": "USA",
    "adminDiv": "California",
    "latitude": 41.67,
    "longitude": -120.206,
    "springName": "LAKE CITY HOT SPRINGS",
    "type": "",
    "tempF": 207,
    "access": "",
    "fee": "",
    "externalLink": ""
  },
  {
    "id": "s000188",
    "country": "USA",
    "adminDiv": "California",
    "latitude": 41.6,
    "longitude": -120.088,
    "springName": "LEONARDS HOT SPRINGS",
    "type": "",
    "tempF": 144,
    "access": "",
    "fee": "",
    "externalLink": ""
  },
  {
    "id": "s000189",
    "country": "USA",
    "adminDiv": "California",
    "latitude": 41.229,
    "longitude": -121.405,
    "springName": "LITTLE HOT SPRING",
    "type": "",
    "tempF": 169,
    "access": "",
    "fee": "",
    "externalLink": ""
  },
  {
    "id": "s000190",
    "country": "USA",
    "adminDiv": "California",
    "latitude": 41.828,
    "longitude": -120.917,
    "springName": "POTHOLE SPRING",
    "type": "",
    "tempF": 78,
    "access": "",
    "fee": "",
    "externalLink": ""
  },
  {
    "id": "s000191",
    "country": "USA",
    "adminDiv": "California",
    "latitude": 41.615,
    "longitude": -120.102,
    "springName": "SEYFERTH HOT SPRINGS",
    "type": "",
    "tempF": 185,
    "access": "",
    "fee": "",
    "externalLink": ""
  },
  {
    "id": "s000192",
    "country": "USA",
    "adminDiv": "California",
    "latitude": 41.484,
    "longitude": -120.764,
    "springName": "SPRING",
    "type": "",
    "tempF": 81,
    "access": "",
    "fee": "",
    "externalLink": ""
  },
  {
    "id": "s000193",
    "country": "USA",
    "adminDiv": "California",
    "latitude": 41.196,
    "longitude": -120.475,
    "springName": "SPRINGS",
    "type": "",
    "tempF": "W",
    "access": "",
    "fee": "",
    "externalLink": ""
  },
  {
    "id": "s000194",
    "country": "USA",
    "adminDiv": "California",
    "latitude": 41.219,
    "longitude": -120.066,
    "springName": "SQUAW BATHS",
    "type": "",
    "tempF": 106,
    "access": "",
    "fee": "",
    "externalLink": ""
  },
  {
    "id": "s000195",
    "country": "USA",
    "adminDiv": "California",
    "latitude": 41.16,
    "longitude": -120.403,
    "springName": "WARM SPRING",
    "type": "",
    "tempF": 70,
    "access": "",
    "fee": "",
    "externalLink": ""
  },
  {
    "id": "s000196",
    "country": "USA",
    "adminDiv": "California",
    "latitude": 41.252,
    "longitude": -120.521,
    "springName": "WARM SPRING",
    "type": "",
    "tempF": 75,
    "access": "",
    "fee": "",
    "externalLink": ""
  },
  {
    "id": "s000197",
    "country": "USA",
    "adminDiv": "California",
    "latitude": 41.959,
    "longitude": -120.936,
    "springName": "WARM SPRING",
    "type": "",
    "tempF": "W",
    "access": "",
    "fee": "",
    "externalLink": ""
  },
  {
    "id": "s000198",
    "country": "USA",
    "adminDiv": "California",
    "latitude": 41.19,
    "longitude": -120.383,
    "springName": "WEST VALLEY RESERVOIR HOT SPRING",
    "type": "",
    "tempF": 171,
    "access": "",
    "fee": "",
    "externalLink": ""
  },
  {
    "id": "s000199",
    "country": "USA",
    "adminDiv": "California",
    "latitude": 41.542,
    "longitude": -120.567,
    "springName": null,
    "type": "",
    "tempF": 81,
    "access": "",
    "fee": "",
    "externalLink": ""
  },
  {
    "id": "s000200",
    "country": "USA",
    "adminDiv": "California",
    "latitude": 41.466,
    "longitude": -120.525,
    "springName": null,
    "type": "",
    "tempF": 72,
    "access": "",
    "fee": "",
    "externalLink": ""
  },
  {
    "id": "s000201",
    "country": "USA",
    "adminDiv": "California",
    "latitude": 41.36,
    "longitude": -120.723,
    "springName": null,
    "type": "",
    "tempF": 81,
    "access": "",
    "fee": "",
    "externalLink": ""
  },
  {
    "id": "s000202",
    "country": "USA",
    "adminDiv": "California",
    "latitude": 41.208,
    "longitude": -120.054,
    "springName": null,
    "type": "",
    "tempF": 109,
    "access": "",
    "fee": "",
    "externalLink": ""
  },
  {
    "id": "s000203",
    "country": "USA",
    "adminDiv": "California",
    "latitude": 35.881,
    "longitude": -118.67,
    "springName": "CALIFORNIA HOT SPRINGS",
    "type": "",
    "tempF": 122,
    "access": "",
    "fee": "",
    "externalLink": ""
  },
  {
    "id": "s000204",
    "country": "USA",
    "adminDiv": "California",
    "latitude": 35.439,
    "longitude": -119.846,
    "springName": "CARNEROS SPRING",
    "type": "",
    "tempF": 90,
    "access": "",
    "fee": "",
    "externalLink": ""
  },
  {
    "id": "s000205",
    "country": "USA",
    "adminDiv": "California",
    "latitude": 35.558,
    "longitude": -118.612,
    "springName": "DELONEGHA HOT SPRINGS",
    "type": "",
    "tempF": 112,
    "access": "",
    "fee": "",
    "externalLink": ""
  },
  {
    "id": "s000206",
    "country": "USA",
    "adminDiv": "California",
    "latitude": 35.528,
    "longitude": -118.665,
    "springName": "DEMOCRAT HOT SPRINGS",
    "type": "",
    "tempF": 115,
    "access": "",
    "fee": "",
    "externalLink": ""
  },
  {
    "id": "s000207",
    "country": "USA",
    "adminDiv": "California",
    "latitude": 35.727,
    "longitude": -118.408,
    "springName": "HOT SPRING",
    "type": "",
    "tempF": 113,
    "access": "",
    "fee": "",
    "externalLink": ""
  },
  {
    "id": "s000208",
    "country": "USA",
    "adminDiv": "California",
    "latitude": 35.575,
    "longitude": -118.534,
    "springName": "MIRACLE HOT SPRS, HOBO HOT SPRS",
    "type": "",
    "tempF": 119,
    "access": "",
    "fee": "",
    "externalLink": ""
  },
  {
    "id": "s000209",
    "country": "USA",
    "adminDiv": "California",
    "latitude": 35.483,
    "longitude": -119.917,
    "springName": "MIZE SPRING",
    "type": "",
    "tempF": 73,
    "access": "",
    "fee": "",
    "externalLink": ""
  },
  {
    "id": "s000210",
    "country": "USA",
    "adminDiv": "California",
    "latitude": 35.62,
    "longitude": -118.473,
    "springName": "SCOVERN HOT SPRINGS",
    "type": "",
    "tempF": 133,
    "access": "",
    "fee": "",
    "externalLink": ""
  },
  {
    "id": "s000211",
    "country": "USA",
    "adminDiv": "California",
    "latitude": 35.536,
    "longitude": -118.651,
    "springName": "SPRING (HOT)",
    "type": "",
    "tempF": "W",
    "access": "",
    "fee": "",
    "externalLink": ""
  },
  {
    "id": "s000212",
    "country": "USA",
    "adminDiv": "California",
    "latitude": 35.148,
    "longitude": -118.783,
    "springName": "WARM SPRING",
    "type": "",
    "tempF": "W",
    "access": "",
    "fee": "",
    "externalLink": ""
  },
  {
    "id": "s000213",
    "country": "USA",
    "adminDiv": "California",
    "latitude": 35.433,
    "longitude": -118.478,
    "springName": "YATES HOT SPRINGS",
    "type": "",
    "tempF": 100,
    "access": "",
    "fee": "",
    "externalLink": ""
  },
  {
    "id": "s000214",
    "country": "USA",
    "adminDiv": "California",
    "latitude": 35.363,
    "longitude": -119.727,
    "springName": null,
    "type": "",
    "tempF": 93,
    "access": "",
    "fee": "",
    "externalLink": ""
  },
  {
    "id": "s000215",
    "country": "USA",
    "adminDiv": "California",
    "latitude": 39.226,
    "longitude": -120.01,
    "springName": "BROCKWAY HOT SPRINGS",
    "type": "",
    "tempF": 131,
    "access": "",
    "fee": "",
    "externalLink": ""
  },
  {
    "id": "s000216",
    "country": "USA",
    "adminDiv": "California",
    "latitude": 39.573,
    "longitude": -120.348,
    "springName": "CAMPBELL HOT SPRINGS",
    "type": "",
    "tempF": 111,
    "access": "",
    "fee": "",
    "externalLink": ""
  },
  {
    "id": "s000217",
    "country": "USA",
    "adminDiv": "California",
    "latitude": 39.728,
    "longitude": -120.547,
    "springName": "MCLEAR WARM SPRINGS",
    "type": "",
    "tempF": 86,
    "access": "",
    "fee": "",
    "externalLink": ""
  },
  {
    "id": "s000218",
    "country": "USA",
    "adminDiv": "California",
    "latitude": 39.922,
    "longitude": -120.024,
    "springName": "ZAMBONI HOT SPRINGS",
    "type": "",
    "tempF": "H",
    "access": "",
    "fee": "",
    "externalLink": ""
  },
  {
    "id": "s000219",
    "country": "USA",
    "adminDiv": "California",
    "latitude": 39.98,
    "longitude": -120.064,
    "springName": null,
    "type": "",
    "tempF": 108,
    "access": "",
    "fee": "",
    "externalLink": ""
  },
  {
    "id": "s000220",
    "country": "USA",
    "adminDiv": "California",
    "latitude": 36.045,
    "longitude": -117.769,
    "springName": "COSO HOT SPRINGS",
    "type": "",
    "tempF": 207,
    "access": "",
    "fee": "",
    "externalLink": ""
  },
  {
    "id": "s000221",
    "country": "USA",
    "adminDiv": "California",
    "latitude": 36.036,
    "longitude": -117.802,
    "springName": "DEVILS KITCHEN",
    "type": "",
    "tempF": 207,
    "access": "",
    "fee": "",
    "externalLink": ""
  },
  {
    "id": "s000222",
    "country": "USA",
    "adminDiv": "California",
    "latitude": 36.33,
    "longitude": -117.948,
    "springName": "DIRTY SOCKS HOT SPRING",
    "type": "",
    "tempF": 93,
    "access": "",
    "fee": "",
    "externalLink": ""
  },
  {
    "id": "s000223",
    "country": "USA",
    "adminDiv": "California",
    "latitude": 36.031,
    "longitude": -117.833,
    "springName": "FUMAROLE",
    "type": "",
    "tempF": 203,
    "access": "",
    "fee": "",
    "externalLink": ""
  },
  {
    "id": "s000224",
    "country": "USA",
    "adminDiv": "California",
    "latitude": 36.675,
    "longitude": -116.923,
    "springName": "KEANE WONDER SPRING",
    "type": "",
    "tempF": 93,
    "access": "",
    "fee": "",
    "externalLink": ""
  },
  {
    "id": "s000225",
    "country": "USA",
    "adminDiv": "California",
    "latitude": 36.698,
    "longitude": -117.848,
    "springName": "LITTLE HUNTER CANYON SPRINGS",
    "type": "",
    "tempF": 81,
    "access": "",
    "fee": "",
    "externalLink": ""
  },
  {
    "id": "s000226",
    "country": "USA",
    "adminDiv": "California",
    "latitude": 36.806,
    "longitude": -117.771,
    "springName": "LOWER WARM SPRINGS",
    "type": "",
    "tempF": 110,
    "access": "",
    "fee": "",
    "externalLink": ""
  },
  {
    "id": "s000227",
    "country": "USA",
    "adminDiv": "California",
    "latitude": 36.512,
    "longitude": -116.821,
    "springName": "NEVARES SPRINGS",
    "type": "",
    "tempF": 102,
    "access": "",
    "fee": "",
    "externalLink": ""
  },
  {
    "id": "s000228",
    "country": "USA",
    "adminDiv": "California",
    "latitude": 36.814,
    "longitude": -117.763,
    "springName": "PALM SPRING",
    "type": "",
    "tempF": 120,
    "access": "",
    "fee": "",
    "externalLink": ""
  },
  {
    "id": "s000229",
    "country": "USA",
    "adminDiv": "California",
    "latitude": 36.495,
    "longitude": -117.893,
    "springName": "SPRINGS",
    "type": "",
    "tempF": 86,
    "access": "",
    "fee": "",
    "externalLink": ""
  },
  {
    "id": "s000230",
    "country": "USA",
    "adminDiv": "California",
    "latitude": 36.441,
    "longitude": -116.829,
    "springName": "TRAVERTINE SPRINGS",
    "type": "",
    "tempF": 90,
    "access": "",
    "fee": "",
    "externalLink": ""
  },
  {
    "id": "s000231",
    "country": "USA",
    "adminDiv": "California",
    "latitude": 36.83,
    "longitude": -117.736,
    "springName": "UPPER WARM SPRING",
    "type": "",
    "tempF": "W",
    "access": "",
    "fee": "",
    "externalLink": ""
  },
  {
    "id": "s000232",
    "country": "USA",
    "adminDiv": "California",
    "latitude": 36.122,
    "longitude": -117.217,
    "springName": "WARM SULPHUR SPRINGS",
    "type": "",
    "tempF": 80,
    "access": "",
    "fee": "",
    "externalLink": ""
  },
  {
    "id": "s000233",
    "country": "USA",
    "adminDiv": "California",
    "latitude": 36.229,
    "longitude": -118.302,
    "springName": "JORDAN HOT SPRINGS",
    "type": "",
    "tempF": 124,
    "access": "",
    "fee": "",
    "externalLink": ""
  },
  {
    "id": "s000234",
    "country": "USA",
    "adminDiv": "California",
    "latitude": 36.477,
    "longitude": -118.404,
    "springName": "KERN HOT SPRING",
    "type": "",
    "tempF": 109,
    "access": "",
    "fee": "",
    "externalLink": ""
  },
  {
    "id": "s000235",
    "country": "USA",
    "adminDiv": "California",
    "latitude": 36.13,
    "longitude": -118.816,
    "springName": "SODA SPRING",
    "type": "",
    "tempF": 72,
    "access": "",
    "fee": "",
    "externalLink": ""
  },
  {
    "id": "s000236",
    "country": "USA",
    "adminDiv": "California",
    "latitude": 36.21,
    "longitude": -118.176,
    "springName": "SODA SPRINGS",
    "type": "",
    "tempF": 100,
    "access": "",
    "fee": "",
    "externalLink": ""
  },
  {
    "id": "s000237",
    "country": "USA",
    "adminDiv": "California",
    "latitude": 36.117,
    "longitude": -118.776,
    "springName": "WARD SPRING",
    "type": "",
    "tempF": 70,
    "access": "",
    "fee": "",
    "externalLink": ""
  },
  {
    "id": "s000238",
    "country": "USA",
    "adminDiv": "California",
    "latitude": 37.029,
    "longitude": -117.383,
    "springName": "GRAPEVINE SPRINGS",
    "type": "",
    "tempF": 100,
    "access": "",
    "fee": "",
    "externalLink": ""
  },
  {
    "id": "s000239",
    "country": "USA",
    "adminDiv": "California",
    "latitude": 33.731,
    "longitude": -118.348,
    "springName": "WHITES POINT HOT SPRINGS",
    "type": "",
    "tempF": 115,
    "access": "",
    "fee": "",
    "externalLink": ""
  },
  {
    "id": "s000240",
    "country": "USA",
    "adminDiv": "California",
    "latitude": 33.802,
    "longitude": -118.393,
    "springName": null,
    "type": "",
    "tempF": 77,
    "access": "",
    "fee": "",
    "externalLink": ""
  },
  {
    "id": "s000241",
    "country": "USA",
    "adminDiv": "California",
    "latitude": 34.538,
    "longitude": -119.56,
    "springName": "AGUA CALIENTE SPRING",
    "type": "",
    "tempF": 133,
    "access": "",
    "fee": "",
    "externalLink": ""
  },
  {
    "id": "s000242",
    "country": "USA",
    "adminDiv": "California",
    "latitude": 34.423,
    "longitude": -119.538,
    "springName": "BORON SPRING",
    "type": "",
    "tempF": 72,
    "access": "",
    "fee": "",
    "externalLink": ""
  },
  {
    "id": "s000243",
    "country": "USA",
    "adminDiv": "California",
    "latitude": 34.159,
    "longitude": -118.499,
    "springName": "EL ENCINO SPRINGS",
    "type": "",
    "tempF": 79,
    "access": "",
    "fee": "",
    "externalLink": ""
  },
  {
    "id": "s000244",
    "country": "USA",
    "adminDiv": "California",
    "latitude": 34.537,
    "longitude": -119.613,
    "springName": "LITTLE CALIENTE SPRING",
    "type": "",
    "tempF": 90,
    "access": "",
    "fee": "",
    "externalLink": ""
  },
  {
    "id": "s000245",
    "country": "USA",
    "adminDiv": "California",
    "latitude": 34.482,
    "longitude": -119.302,
    "springName": "MATILIJA HOT SPRINGS",
    "type": "",
    "tempF": 109,
    "access": "",
    "fee": "",
    "externalLink": ""
  },
  {
    "id": "s000246",
    "country": "USA",
    "adminDiv": "California",
    "latitude": 34.461,
    "longitude": -119.637,
    "springName": "MONTECITO HOT SPRINGS",
    "type": "",
    "tempF": 118,
    "access": "",
    "fee": "",
    "externalLink": ""
  },
  {
    "id": "s000247",
    "country": "USA",
    "adminDiv": "California",
    "latitude": 34.537,
    "longitude": -119.879,
    "springName": "SAN MARCOS HOT SPRING",
    "type": "",
    "tempF": 110,
    "access": "",
    "fee": "",
    "externalLink": ""
  },
  {
    "id": "s000248",
    "country": "USA",
    "adminDiv": "California",
    "latitude": 34.596,
    "longitude": -118.998,
    "springName": "SESPE HOT SPRINGS",
    "type": "",
    "tempF": 194,
    "access": "",
    "fee": "",
    "externalLink": ""
  },
  {
    "id": "s000249",
    "country": "USA",
    "adminDiv": "California",
    "latitude": 43.513,
    "longitude": -119.903,
    "springName": "SPRINGS AT TECOLOTE TUNNEL",
    "type": "",
    "tempF": 93,
    "access": "",
    "fee": "",
    "externalLink": ""
  },
  {
    "id": "s000250",
    "country": "USA",
    "adminDiv": "California",
    "latitude": 34.498,
    "longitude": -119.341,
    "springName": "STINGLEYS HOT SPRINGS",
    "type": "",
    "tempF": 123,
    "access": "",
    "fee": "",
    "externalLink": ""
  },
  {
    "id": "s000251",
    "country": "USA",
    "adminDiv": "California",
    "latitude": 34.502,
    "longitude": -119.346,
    "springName": "VICKERS HOT SPRINGS",
    "type": "",
    "tempF": 124,
    "access": "",
    "fee": "",
    "externalLink": ""
  },
  {
    "id": "s000252",
    "country": "USA",
    "adminDiv": "California",
    "latitude": 34.605,
    "longitude": -118.561,
    "springName": "WARM SPRING",
    "type": "",
    "tempF": 92,
    "access": "",
    "fee": "",
    "externalLink": ""
  },
  {
    "id": "s000253",
    "country": "USA",
    "adminDiv": "California",
    "latitude": 34.507,
    "longitude": -119.291,
    "springName": "WHEELER SPRINGS",
    "type": "",
    "tempF": 102,
    "access": "",
    "fee": "",
    "externalLink": ""
  },
  {
    "id": "s000254",
    "country": "USA",
    "adminDiv": "California",
    "latitude": 34.582,
    "longitude": -119.044,
    "springName": "WILLETT HOT SPRINGS",
    "type": "",
    "tempF": 108,
    "access": "",
    "fee": "",
    "externalLink": ""
  },
  {
    "id": "s000255",
    "country": "USA",
    "adminDiv": "California",
    "latitude": 37.802,
    "longitude": -118.532,
    "springName": "BENTON HOT SPRINGS",
    "type": "",
    "tempF": 134,
    "access": "",
    "fee": "",
    "externalLink": ""
  },
  {
    "id": "s000256",
    "country": "USA",
    "adminDiv": "California",
    "latitude": 37.888,
    "longitude": -118.487,
    "springName": "BERTRAND RANCH SPRINGS",
    "type": "",
    "tempF": 70,
    "access": "",
    "fee": "",
    "externalLink": ""
  },
  {
    "id": "s000257",
    "country": "USA",
    "adminDiv": "California",
    "latitude": 37.234,
    "longitude": -118.881,
    "springName": "BLANEY MEADOWS HOT SPRINGS",
    "type": "",
    "tempF": 109,
    "access": "",
    "fee": "",
    "externalLink": ""
  },
  {
    "id": "s000258",
    "country": "USA",
    "adminDiv": "California",
    "latitude": 37.647,
    "longitude": -118.859,
    "springName": "CASA DIABLO HOT POOL",
    "type": "",
    "tempF": 165,
    "access": "",
    "fee": "",
    "externalLink": ""
  },
  {
    "id": "s000259",
    "country": "USA",
    "adminDiv": "California",
    "latitude": 37.648,
    "longitude": -118.914,
    "springName": "CASA DIABLO HOT SPRINGS AND GEYSER",
    "type": "",
    "tempF": 199,
    "access": "",
    "fee": "",
    "externalLink": ""
  },
  {
    "id": "s000260",
    "country": "USA",
    "adminDiv": "California",
    "latitude": 37.638,
    "longitude": -118.887,
    "springName": "CHANCE SPRING",
    "type": "",
    "tempF": 73,
    "access": "",
    "fee": "",
    "externalLink": ""
  },
  {
    "id": "s000261",
    "country": "USA",
    "adminDiv": "California",
    "latitude": 37.677,
    "longitude": -118.79,
    "springName": "DEHY HOT SPRING",
    "type": "",
    "tempF": 134,
    "access": "",
    "fee": "",
    "externalLink": ""
  },
  {
    "id": "s000262",
    "country": "USA",
    "adminDiv": "California",
    "latitude": 37.532,
    "longitude": -119.025,
    "springName": "FISH CREEK HOT SPRINGS",
    "type": "",
    "tempF": 110,
    "access": "",
    "fee": "",
    "externalLink": ""
  },
  {
    "id": "s000263",
    "country": "USA",
    "adminDiv": "California",
    "latitude": 37.622,
    "longitude": -119.028,
    "springName": "FUMAROLES",
    "type": "",
    "tempF": "H",
    "access": "",
    "fee": "",
    "externalLink": ""
  },
  {
    "id": "s000264",
    "country": "USA",
    "adminDiv": "California",
    "latitude": 37.665,
    "longitude": -118.828,
    "springName": "HOT CREEK GORGE SPRINGS",
    "type": "",
    "tempF": 199,
    "access": "",
    "fee": "",
    "externalLink": ""
  },
  {
    "id": "s000265",
    "country": "USA",
    "adminDiv": "California",
    "latitude": 37.656,
    "longitude": -118.834,
    "springName": "HOT CREEK SPRINGS",
    "type": "",
    "tempF": 171,
    "access": "",
    "fee": "",
    "externalLink": ""
  },
  {
    "id": "s000266",
    "country": "USA",
    "adminDiv": "California",
    "latitude": 37.708,
    "longitude": -118.813,
    "springName": "HOT SPRING",
    "type": "",
    "tempF": 68,
    "access": "",
    "fee": "",
    "externalLink": ""
  },
  {
    "id": "s000267",
    "country": "USA",
    "adminDiv": "California",
    "latitude": 37.648,
    "longitude": -118.806,
    "springName": "HOT SPRINGS",
    "type": "",
    "tempF": 129,
    "access": "",
    "fee": "",
    "externalLink": ""
  },
  {
    "id": "s000268",
    "country": "USA",
    "adminDiv": "California",
    "latitude": 37.253,
    "longitude": -118.373,
    "springName": "KEOUGH HOT SPRINGS",
    "type": "",
    "tempF": 124,
    "access": "",
    "fee": "",
    "externalLink": ""
  },
  {
    "id": "s000269",
    "country": "USA",
    "adminDiv": "California",
    "latitude": 37.692,
    "longitude": -118.839,
    "springName": "LITTLE HOT CREEK SPRING",
    "type": "",
    "tempF": 180,
    "access": "",
    "fee": "",
    "externalLink": ""
  },
  {
    "id": "s000270",
    "country": "USA",
    "adminDiv": "California",
    "latitude": 37.327,
    "longitude": -119.018,
    "springName": "MONO HOT SPRINGS",
    "type": "",
    "tempF": 109,
    "access": "",
    "fee": "",
    "externalLink": ""
  },
  {
    "id": "s000271",
    "country": "USA",
    "adminDiv": "California",
    "latitude": 37.993,
    "longitude": -119.028,
    "springName": "PAOHA ISLAND SPRINGS",
    "type": "",
    "tempF": 181,
    "access": "",
    "fee": "",
    "externalLink": ""
  },
  {
    "id": "s000272",
    "country": "USA",
    "adminDiv": "California",
    "latitude": 37.618,
    "longitude": -119.074,
    "springName": "REDS MEADOW HOT SPRINGS",
    "type": "",
    "tempF": 115,
    "access": "",
    "fee": "",
    "externalLink": ""
  },
  {
    "id": "s000273",
    "country": "USA",
    "adminDiv": "California",
    "latitude": 37.719,
    "longitude": -118.735,
    "springName": "SPRINGS",
    "type": "",
    "tempF": 75,
    "access": "",
    "fee": "",
    "externalLink": ""
  },
  {
    "id": "s000274",
    "country": "USA",
    "adminDiv": "California",
    "latitude": 37.635,
    "longitude": -118.72,
    "springName": "SPRINGS",
    "type": "",
    "tempF": 72,
    "access": "",
    "fee": "",
    "externalLink": ""
  },
  {
    "id": "s000275",
    "country": "USA",
    "adminDiv": "California",
    "latitude": 37.664,
    "longitude": -118.802,
    "springName": "THE TUB",
    "type": "",
    "tempF": 167,
    "access": "",
    "fee": "",
    "externalLink": ""
  },
  {
    "id": "s000276",
    "country": "USA",
    "adminDiv": "California",
    "latitude": 37.63,
    "longitude": -118.808,
    "springName": "WHITMORE HOT SPRINGS",
    "type": "",
    "tempF": 95,
    "access": "",
    "fee": "",
    "externalLink": ""
  },
  {
    "id": "s000277",
    "country": "USA",
    "adminDiv": "California",
    "latitude": 37.413,
    "longitude": -119.139,
    "springName": null,
    "type": "",
    "tempF": 95,
    "access": "",
    "fee": "",
    "externalLink": ""
  },
  {
    "id": "s000278",
    "country": "USA",
    "adminDiv": "California",
    "latitude": 37.667,
    "longitude": -118.781,
    "springName": null,
    "type": "",
    "tempF": 127,
    "access": "",
    "fee": "",
    "externalLink": ""
  },
  {
    "id": "s000279",
    "country": "USA",
    "adminDiv": "California",
    "latitude": 37.657,
    "longitude": -118.764,
    "springName": null,
    "type": "",
    "tempF": 120,
    "access": "",
    "fee": "",
    "externalLink": ""
  },
  {
    "id": "s000280",
    "country": "USA",
    "adminDiv": "California",
    "latitude": 37.653,
    "longitude": -118.925,
    "springName": null,
    "type": "",
    "tempF": 72,
    "access": "",
    "fee": "",
    "externalLink": ""
  },
  {
    "id": "s000281",
    "country": "USA",
    "adminDiv": "California",
    "latitude": 37.639,
    "longitude": -118.756,
    "springName": null,
    "type": "",
    "tempF": 86,
    "access": "",
    "fee": "",
    "externalLink": ""
  },
  {
    "id": "s000282",
    "country": "USA",
    "adminDiv": "California",
    "latitude": 37.607,
    "longitude": -118.808,
    "springName": null,
    "type": "",
    "tempF": 73,
    "access": "",
    "fee": "",
    "externalLink": ""
  },
  {
    "id": "s000283",
    "country": "USA",
    "adminDiv": "California",
    "latitude": 37.268,
    "longitude": -118.272,
    "springName": null,
    "type": "",
    "tempF": 84,
    "access": "",
    "fee": "",
    "externalLink": ""
  },
  {
    "id": "s000284",
    "country": "USA",
    "adminDiv": "California",
    "latitude": 37.989,
    "longitude": -119.139,
    "springName": null,
    "type": "",
    "tempF": 72,
    "access": "",
    "fee": "",
    "externalLink": ""
  },
  {
    "id": "s000285",
    "country": "USA",
    "adminDiv": "California",
    "latitude": 37.941,
    "longitude": -119.036,
    "springName": null,
    "type": "",
    "tempF": 91,
    "access": "",
    "fee": "",
    "externalLink": ""
  },
  {
    "id": "s000286",
    "country": "USA",
    "adminDiv": "California",
    "latitude": 37.836,
    "longitude": -119.016,
    "springName": null,
    "type": "",
    "tempF": 97,
    "access": "",
    "fee": "",
    "externalLink": ""
  },
  {
    "id": "s000287",
    "country": "USA",
    "adminDiv": "California",
    "latitude": 40.223,
    "longitude": -122.747,
    "springName": "STINKING SPRINGS",
    "type": "",
    "tempF": 101,
    "access": "",
    "fee": "",
    "externalLink": ""
  },
  {
    "id": "s000288",
    "country": "USA",
    "adminDiv": "California",
    "latitude": 40.238,
    "longitude": -122.11,
    "springName": "TUSCAN SPRINGS",
    "type": "",
    "tempF": 86,
    "access": "",
    "fee": "",
    "externalLink": ""
  },
  {
    "id": "s000289",
    "country": "USA",
    "adminDiv": "California",
    "latitude": 38.85,
    "longitude": -120.025,
    "springName": "MYERS WARM SPRING",
    "type": "",
    "tempF": 75,
    "access": "",
    "fee": "",
    "externalLink": ""
  },
  {
    "id": "s000290",
    "country": "USA",
    "adminDiv": "California",
    "latitude": 38.192,
    "longitude": -120.827,
    "springName": "VALLEY SPRINGS",
    "type": "",
    "tempF": 75,
    "access": "",
    "fee": "",
    "externalLink": ""
  },
  {
    "id": "s000291",
    "country": "USA",
    "adminDiv": "California",
    "latitude": 33.545,
    "longitude": -115.654,
    "springName": "CANYON SPRING",
    "type": "",
    "tempF": 97,
    "access": "",
    "fee": "",
    "externalLink": ""
  },
  {
    "id": "s000292",
    "country": "USA",
    "adminDiv": "California",
    "latitude": 33.625,
    "longitude": -115.325,
    "springName": "CORN SPRING",
    "type": "",
    "tempF": 72,
    "access": "",
    "fee": "",
    "externalLink": ""
  },
  {
    "id": "s000293",
    "country": "USA",
    "adminDiv": "California",
    "latitude": 33.512,
    "longitude": -115.827,
    "springName": "DOS PALMAS SPRING",
    "type": "",
    "tempF": 84,
    "access": "",
    "fee": "",
    "externalLink": ""
  },
  {
    "id": "s000294",
    "country": "USA",
    "adminDiv": "California",
    "latitude": 33.733,
    "longitude": -114.907,
    "springName": "MCCOY SPRING",
    "type": "",
    "tempF": 82,
    "access": "",
    "fee": "",
    "externalLink": ""
  },
  {
    "id": "s000295",
    "country": "USA",
    "adminDiv": "California",
    "latitude": 33.201,
    "longitude": -115.577,
    "springName": "MUD POTS",
    "type": "",
    "tempF": 100,
    "access": "",
    "fee": "",
    "externalLink": ""
  },
  {
    "id": "s000296",
    "country": "USA",
    "adminDiv": "California",
    "latitude": 33.212,
    "longitude": -115.591,
    "springName": "MUD POTS",
    "type": "",
    "tempF": 100,
    "access": "",
    "fee": "",
    "externalLink": ""
  },
  {
    "id": "s000297",
    "country": "USA",
    "adminDiv": "California",
    "latitude": 33.332,
    "longitude": -115.575,
    "springName": "MUD VOLCANOES",
    "type": "",
    "tempF": "W",
    "access": "",
    "fee": "",
    "externalLink": ""
  },
  {
    "id": "s000298",
    "country": "USA",
    "adminDiv": "California",
    "latitude": 33.328,
    "longitude": -115.583,
    "springName": "MUD VOLCANOES",
    "type": "",
    "tempF": "W",
    "access": "",
    "fee": "",
    "externalLink": ""
  },
  {
    "id": "s000299",
    "country": "USA",
    "adminDiv": "California",
    "latitude": 33.312,
    "longitude": -115.577,
    "springName": "MUD VOLCANOES",
    "type": "",
    "tempF": "W",
    "access": "",
    "fee": "",
    "externalLink": ""
  },
  {
    "id": "s000300",
    "country": "USA",
    "adminDiv": "California",
    "latitude": 33.288,
    "longitude": -115.575,
    "springName": "MUD VOLCANOES",
    "type": "",
    "tempF": "W",
    "access": "",
    "fee": "",
    "externalLink": ""
  },
  {
    "id": "s000301",
    "country": "USA",
    "adminDiv": "California",
    "latitude": 33.28,
    "longitude": -115.592,
    "springName": "MUD VOLCANOES",
    "type": "",
    "tempF": "W",
    "access": "",
    "fee": "",
    "externalLink": ""
  },
  {
    "id": "s000302",
    "country": "USA",
    "adminDiv": "California",
    "latitude": 33.343,
    "longitude": -115.573,
    "springName": "MUD VOLCANOES",
    "type": "",
    "tempF": "W",
    "access": "",
    "fee": "",
    "externalLink": ""
  },
  {
    "id": "s000303",
    "country": "USA",
    "adminDiv": "California",
    "latitude": 33.345,
    "longitude": -115.588,
    "springName": "MUD VOLCANOES",
    "type": "",
    "tempF": "W",
    "access": "",
    "fee": "",
    "externalLink": ""
  },
  {
    "id": "s000304",
    "country": "USA",
    "adminDiv": "California",
    "latitude": 33.313,
    "longitude": -115.605,
    "springName": "MUD VOLCANOES",
    "type": "",
    "tempF": "W",
    "access": "",
    "fee": "",
    "externalLink": ""
  },
  {
    "id": "s000305",
    "country": "USA",
    "adminDiv": "California",
    "latitude": 33.217,
    "longitude": -115.58,
    "springName": "WISTER MUD POT",
    "type": "",
    "tempF": 100,
    "access": "",
    "fee": "",
    "externalLink": ""
  },
  {
    "id": "s000306",
    "country": "USA",
    "adminDiv": "California",
    "latitude": 34.185,
    "longitude": -117.262,
    "springName": "ARROWHEAD SPRINGS, WATERMAN HOT SPR",
    "type": "",
    "tempF": 194,
    "access": "",
    "fee": "",
    "externalLink": ""
  },
  {
    "id": "s000307",
    "country": "USA",
    "adminDiv": "California",
    "latitude": 34.826,
    "longitude": -116.677,
    "springName": "NEWBERRY SPRING",
    "type": "",
    "tempF": 77,
    "access": "",
    "fee": "",
    "externalLink": ""
  },
  {
    "id": "s000308",
    "country": "USA",
    "adminDiv": "California",
    "latitude": 34.271,
    "longitude": -116.838,
    "springName": "PAN HOT SPRINGS",
    "type": "",
    "tempF": 88,
    "access": "",
    "fee": "",
    "externalLink": ""
  },
  {
    "id": "s000309",
    "country": "USA",
    "adminDiv": "California",
    "latitude": 34.228,
    "longitude": -117.483,
    "springName": "TYLERS BATH SPRING",
    "type": "",
    "tempF": 92,
    "access": "",
    "fee": "",
    "externalLink": ""
  },
  {
    "id": "s000310",
    "country": "USA",
    "adminDiv": "California",
    "latitude": 34.34,
    "longitude": -117.173,
    "springName": "WARM SPRING, HOT SPRING",
    "type": "",
    "tempF": 108,
    "access": "",
    "fee": "",
    "externalLink": ""
  },
  {
    "id": "s000311",
    "country": "USA",
    "adminDiv": "California",
    "latitude": 34.124,
    "longitude": -117.078,
    "springName": null,
    "type": "",
    "tempF": 90,
    "access": "",
    "fee": "",
    "externalLink": ""
  },
  {
    "id": "s000312",
    "country": "USA",
    "adminDiv": "California",
    "latitude": 32.947,
    "longitude": -116.305,
    "springName": "AGUA CALIENTE SPRINGS",
    "type": "",
    "tempF": 101,
    "access": "",
    "fee": "",
    "externalLink": ""
  },
  {
    "id": "s000313",
    "country": "USA",
    "adminDiv": "California",
    "latitude": 32.617,
    "longitude": -116.189,
    "springName": "JACUMBA HOT SPRINGS",
    "type": "",
    "tempF": 101,
    "access": "",
    "fee": "",
    "externalLink": ""
  },
  {
    "id": "s000314",
    "country": "USA",
    "adminDiv": "California",
    "latitude": 32.97,
    "longitude": -116.423,
    "springName": "VALLECITOS SPRING",
    "type": "",
    "tempF": 79,
    "access": "",
    "fee": "",
    "externalLink": ""
  },
  {
    "id": "s000315",
    "country": "USA",
    "adminDiv": "California",
    "latitude": 37.88,
    "longitude": -122.627,
    "springName": "ROCKY POINT SPRINGS",
    "type": "",
    "tempF": 90,
    "access": "",
    "fee": "",
    "externalLink": ""
  },
  {
    "id": "s000316",
    "country": "USA",
    "adminDiv": "California",
    "latitude": 37.924,
    "longitude": -122.046,
    "springName": "SULPHUR SPRING",
    "type": "",
    "tempF": 75,
    "access": "",
    "fee": "",
    "externalLink": ""
  },
  {
    "id": "s000317",
    "country": "USA",
    "adminDiv": "California",
    "latitude": 37.503,
    "longitude": -121.904,
    "springName": "ALAMEDA WARM SPRINGS",
    "type": "",
    "tempF": 80,
    "access": "",
    "fee": "",
    "externalLink": ""
  },
  {
    "id": "s000318",
    "country": "USA",
    "adminDiv": "California",
    "latitude": 37.847,
    "longitude": -121.635,
    "springName": "BYRON HOT SPRINGS",
    "type": "",
    "tempF": 96,
    "access": "",
    "fee": "",
    "externalLink": ""
  },
  {
    "id": "s000319",
    "country": "USA",
    "adminDiv": "California",
    "latitude": 37.632,
    "longitude": -121.762,
    "springName": "CROHARE SPRING",
    "type": "",
    "tempF": 70,
    "access": "",
    "fee": "",
    "externalLink": ""
  },
  {
    "id": "s000320",
    "country": "USA",
    "adminDiv": "California",
    "latitude": 37.108,
    "longitude": -121.478,
    "springName": "GILROY HOT SPRINGS",
    "type": "",
    "tempF": 106,
    "access": "",
    "fee": "",
    "externalLink": ""
  },
  {
    "id": "s000321",
    "country": "USA",
    "adminDiv": "California",
    "latitude": 37.573,
    "longitude": -121.445,
    "springName": "LONE TREE MINERAL SPRING",
    "type": "",
    "tempF": 73,
    "access": "",
    "fee": "",
    "externalLink": ""
  },
  {
    "id": "s000322",
    "country": "USA",
    "adminDiv": "California",
    "latitude": 37.398,
    "longitude": -121.794,
    "springName": "MINERAL SPRINGS",
    "type": "",
    "tempF": 84,
    "access": "",
    "fee": "",
    "externalLink": ""
  },
  {
    "id": "s000323",
    "country": "USA",
    "adminDiv": "California",
    "latitude": 37.432,
    "longitude": -121.308,
    "springName": "SALT GRASS SPRINGS",
    "type": "",
    "tempF": 73,
    "access": "",
    "fee": "",
    "externalLink": ""
  },
  {
    "id": "s000324",
    "country": "USA",
    "adminDiv": "California",
    "latitude": 37.083,
    "longitude": -121.042,
    "springName": "SPRING IN ONEILL FOREBAY",
    "type": "",
    "tempF": 70,
    "access": "",
    "fee": "",
    "externalLink": ""
  },
  {
    "id": "s000325",
    "country": "USA",
    "adminDiv": "California",
    "latitude": 37.929,
    "longitude": -121.965,
    "springName": "SPRINGS",
    "type": "",
    "tempF": "W",
    "access": "",
    "fee": "",
    "externalLink": ""
  },
  {
    "id": "s000326",
    "country": "USA",
    "adminDiv": "California",
    "latitude": 37.895,
    "longitude": -121.874,
    "springName": null,
    "type": "",
    "tempF": 70,
    "access": "",
    "fee": "",
    "externalLink": ""
  },
  {
    "id": "s000327",
    "country": "USA",
    "adminDiv": "California",
    "latitude": 35.4,
    "longitude": -120.25,
    "springName": "CAMETA WARM SPRING",
    "type": "",
    "tempF": 73,
    "access": "",
    "fee": "",
    "externalLink": ""
  },
  {
    "id": "s000328",
    "country": "USA",
    "adminDiv": "California",
    "latitude": 35.122,
    "longitude": -120.542,
    "springName": "NEWSOM SPRINGS",
    "type": "",
    "tempF": 99,
    "access": "",
    "fee": "",
    "externalLink": ""
  },
  {
    "id": "s000329",
    "country": "USA",
    "adminDiv": "California",
    "latitude": 35.663,
    "longitude": -120.692,
    "springName": "PASO ROBLES ARTESIAN SPRING",
    "type": "",
    "tempF": 102,
    "access": "",
    "fee": "",
    "externalLink": ""
  },
  {
    "id": "s000330",
    "country": "USA",
    "adminDiv": "California",
    "latitude": 35.269,
    "longitude": -120.851,
    "springName": "PECHO WARM SPRINGS",
    "type": "",
    "tempF": 95,
    "access": "",
    "fee": "",
    "externalLink": ""
  },
  {
    "id": "s000331",
    "country": "USA",
    "adminDiv": "California",
    "latitude": 35.582,
    "longitude": -120.666,
    "springName": "SANTA YSABEL SPRINGS (SULPHUR SPR)",
    "type": "",
    "tempF": 92,
    "access": "",
    "fee": "",
    "externalLink": ""
  },
  {
    "id": "s000332",
    "country": "USA",
    "adminDiv": "California",
    "latitude": 35.908,
    "longitude": -120.367,
    "springName": "TABLE MOUNTAIN (SPRING)",
    "type": "",
    "tempF": 88,
    "access": "",
    "fee": "",
    "externalLink": ""
  },
  {
    "id": "s000333",
    "country": "USA",
    "adminDiv": "California",
    "latitude": 35.649,
    "longitude": -120.687,
    "springName": null,
    "type": "",
    "tempF": 108,
    "access": "",
    "fee": "",
    "externalLink": ""
  },
  {
    "id": "s000334",
    "country": "USA",
    "adminDiv": "California",
    "latitude": 33.363,
    "longitude": -117.017,
    "springName": "AGUA TIBIA SPRING",
    "type": "",
    "tempF": 92,
    "access": "",
    "fee": "",
    "externalLink": ""
  },
  {
    "id": "s000335",
    "country": "USA",
    "adminDiv": "California",
    "latitude": 33.436,
    "longitude": -117.324,
    "springName": "DE LUZ WARM SPRINGS",
    "type": "",
    "tempF": 85,
    "access": "",
    "fee": "",
    "externalLink": ""
  },
  {
    "id": "s000336",
    "country": "USA",
    "adminDiv": "California",
    "latitude": 33.896,
    "longitude": -117.057,
    "springName": "EDEN HOT SPRINGS",
    "type": "",
    "tempF": 109,
    "access": "",
    "fee": "",
    "externalLink": ""
  },
  {
    "id": "s000337",
    "country": "USA",
    "adminDiv": "California",
    "latitude": 33.664,
    "longitude": -117.913,
    "springName": "FAIRVIEW HOT SPRING",
    "type": "",
    "tempF": 96,
    "access": "",
    "fee": "",
    "externalLink": ""
  },
  {
    "id": "s000338",
    "country": "USA",
    "adminDiv": "California",
    "latitude": 33.407,
    "longitude": -116.035,
    "springName": "FISH SPRINGS",
    "type": "",
    "tempF": 90,
    "access": "",
    "fee": "",
    "externalLink": ""
  },
  {
    "id": "s000339",
    "country": "USA",
    "adminDiv": "California",
    "latitude": 33.835,
    "longitude": -116.988,
    "springName": "GILMAN HOT SPRINGS",
    "type": "",
    "tempF": 117,
    "access": "",
    "fee": "",
    "externalLink": ""
  },
  {
    "id": "s000340",
    "country": "USA",
    "adminDiv": "California",
    "latitude": 33.753,
    "longitude": -117.495,
    "springName": "GLEN IVY HOT SPRINGS",
    "type": "",
    "tempF": 131,
    "access": "",
    "fee": "",
    "externalLink": ""
  },
  {
    "id": "s000341",
    "country": "USA",
    "adminDiv": "California",
    "latitude": 33.969,
    "longitude": -116.942,
    "springName": "HIGHLAND SPRINGS",
    "type": "",
    "tempF": 112,
    "access": "",
    "fee": "",
    "externalLink": ""
  },
  {
    "id": "s000342",
    "country": "USA",
    "adminDiv": "California",
    "latitude": 33.837,
    "longitude": -117.145,
    "springName": "LAKEVIEW HOT SPRINGS",
    "type": "",
    "tempF": 100,
    "access": "",
    "fee": "",
    "externalLink": ""
  },
  {
    "id": "s000343",
    "country": "USA",
    "adminDiv": "California",
    "latitude": 33.558,
    "longitude": -117.154,
    "springName": "MURRIETTA HOT SPRINGS",
    "type": "",
    "tempF": 132,
    "access": "",
    "fee": "",
    "externalLink": ""
  },
  {
    "id": "s000344",
    "country": "USA",
    "adminDiv": "California",
    "latitude": 33.823,
    "longitude": -116.542,
    "springName": "PALM SPRINGS (AGUA CALIENTE SPRING)",
    "type": "",
    "tempF": 104,
    "access": "",
    "fee": "",
    "externalLink": ""
  },
  {
    "id": "s000345",
    "country": "USA",
    "adminDiv": "California",
    "latitude": 33.589,
    "longitude": -117.511,
    "springName": "SAN JUAN HOT SPRINGS",
    "type": "",
    "tempF": 120,
    "access": "",
    "fee": "",
    "externalLink": ""
  },
  {
    "id": "s000346",
    "country": "USA",
    "adminDiv": "California",
    "latitude": 33.8,
    "longitude": -116.927,
    "springName": "SOBODA HOT SPRINGS",
    "type": "",
    "tempF": 102,
    "access": "",
    "fee": "",
    "externalLink": ""
  },
  {
    "id": "s000347",
    "country": "USA",
    "adminDiv": "California",
    "latitude": 33.514,
    "longitude": -117.604,
    "springName": "SPRING",
    "type": "",
    "tempF": 95,
    "access": "",
    "fee": "",
    "externalLink": ""
  },
  {
    "id": "s000348",
    "country": "USA",
    "adminDiv": "California",
    "latitude": 33.551,
    "longitude": -117.167,
    "springName": "TEMECULA HOT SPRINGS",
    "type": "",
    "tempF": 116,
    "access": "",
    "fee": "",
    "externalLink": ""
  },
  {
    "id": "s000349",
    "country": "USA",
    "adminDiv": "California",
    "latitude": 33.284,
    "longitude": -116.631,
    "springName": "WARNER HOT SPRING",
    "type": "",
    "tempF": 138,
    "access": "",
    "fee": "",
    "externalLink": ""
  },
  {
    "id": "s000350",
    "country": "USA",
    "adminDiv": "California",
    "latitude": 33.67,
    "longitude": -117.325,
    "springName": "WRENDEN HOT SPRS, ELSINORE HOT SPRS",
    "type": "",
    "tempF": 125,
    "access": "",
    "fee": "",
    "externalLink": ""
  },
  {
    "id": "s000351",
    "country": "USA",
    "adminDiv": "California",
    "latitude": 33.54,
    "longitude": -116.742,
    "springName": null,
    "type": "",
    "tempF": "W",
    "access": "",
    "fee": "",
    "externalLink": ""
  },
  {
    "id": "s000352",
    "country": "USA",
    "adminDiv": "California",
    "latitude": 33.865,
    "longitude": -117.103,
    "springName": null,
    "type": "",
    "tempF": "W",
    "access": "",
    "fee": "",
    "externalLink": ""
  },
  {
    "id": "s000353",
    "country": "USA",
    "adminDiv": "California",
    "latitude": 36.144,
    "longitude": -120.555,
    "springName": "COALINGA MINERAL SPRINGS",
    "type": "",
    "tempF": 112,
    "access": "",
    "fee": "",
    "externalLink": ""
  },
  {
    "id": "s000354",
    "country": "USA",
    "adminDiv": "California",
    "latitude": 36.084,
    "longitude": -121.584,
    "springName": "DOLANS HOT SPRING",
    "type": "",
    "tempF": 98,
    "access": "",
    "fee": "",
    "externalLink": ""
  },
  {
    "id": "s000355",
    "country": "USA",
    "adminDiv": "California",
    "latitude": 36.773,
    "longitude": -120.898,
    "springName": "IRIDAT SPRING",
    "type": "",
    "tempF": 73,
    "access": "",
    "fee": "",
    "externalLink": ""
  },
  {
    "id": "s000356",
    "country": "USA",
    "adminDiv": "California",
    "latitude": 36.703,
    "longitude": -120.86,
    "springName": "MERCEY HOT SPRINGS",
    "type": "",
    "tempF": 119,
    "access": "",
    "fee": "",
    "externalLink": ""
  },
  {
    "id": "s000357",
    "country": "USA",
    "adminDiv": "California",
    "latitude": 36.331,
    "longitude": -121.367,
    "springName": "PARAISO SPRINGS (SULPHUR SPRING)",
    "type": "",
    "tempF": 98,
    "access": "",
    "fee": "",
    "externalLink": ""
  },
  {
    "id": "s000358",
    "country": "USA",
    "adminDiv": "California",
    "latitude": 36.938,
    "longitude": -121.565,
    "springName": "SARGENT ESTATE WARM SPRING",
    "type": "",
    "tempF": 77,
    "access": "",
    "fee": "",
    "externalLink": ""
  },
  {
    "id": "s000359",
    "country": "USA",
    "adminDiv": "California",
    "latitude": 36.123,
    "longitude": -121.64,
    "springName": "SLATES HOT SPRINGS",
    "type": "",
    "tempF": 122,
    "access": "",
    "fee": "",
    "externalLink": ""
  },
  {
    "id": "s000360",
    "country": "USA",
    "adminDiv": "California",
    "latitude": 36.765,
    "longitude": -120.901,
    "springName": "SPRING",
    "type": "",
    "tempF": 81,
    "access": "",
    "fee": "",
    "externalLink": ""
  },
  {
    "id": "s000361",
    "country": "USA",
    "adminDiv": "California",
    "latitude": 36.618,
    "longitude": -121.845,
    "springName": "SULPHUR HOT SPRING",
    "type": "",
    "tempF": 100,
    "access": "",
    "fee": "",
    "externalLink": ""
  },
  {
    "id": "s000362",
    "country": "USA",
    "adminDiv": "California",
    "latitude": 36.295,
    "longitude": -120.985,
    "springName": "SULPHUR SPRINGS",
    "type": "",
    "tempF": 73,
    "access": "",
    "fee": "",
    "externalLink": ""
  },
  {
    "id": "s000363",
    "country": "USA",
    "adminDiv": "California",
    "latitude": 36.234,
    "longitude": -121.546,
    "springName": "TASSAJARA HOT SPRINGS",
    "type": "",
    "tempF": 144,
    "access": "",
    "fee": "",
    "externalLink": ""
  },
  {
    "id": "s000364",
    "country": "USA",
    "adminDiv": "California",
    "latitude": 36.64,
    "longitude": -120.684,
    "springName": null,
    "type": "",
    "tempF": 75,
    "access": "",
    "fee": "",
    "externalLink": ""
  },
  {
    "id": "s000365",
    "country": "USA",
    "adminDiv": "California",
    "latitude": 36.331,
    "longitude": -121.843,
    "springName": null,
    "type": "",
    "tempF": 114,
    "access": "",
    "fee": "",
    "externalLink": ""
  },
  {
    "id": "s000366",
    "country": "USA",
    "adminDiv": "California",
    "latitude": 36.25,
    "longitude": -121.683,
    "springName": null,
    "type": "",
    "tempF": "W",
    "access": "",
    "fee": "",
    "externalLink": ""
  },
  {
    "id": "s000367",
    "country": "USA",
    "adminDiv": "California",
    "latitude": 34.503,
    "longitude": -120.219,
    "springName": "LAS CRUCES HOT SPRINGS",
    "type": "",
    "tempF": 99,
    "access": "",
    "fee": "",
    "externalLink": ""
  },
  {
    "id": "s000368",
    "country": "USA",
    "adminDiv": "California",
    "latitude": 38.654,
    "longitude": -122.484,
    "springName": "AETNA SPRINGS",
    "type": "",
    "tempF": 91,
    "access": "",
    "fee": "",
    "externalLink": ""
  },
  {
    "id": "s000369",
    "country": "USA",
    "adminDiv": "California",
    "latitude": 38.773,
    "longitude": -122.705,
    "springName": "ANDERSON SPRINGS",
    "type": "",
    "tempF": 108,
    "access": "",
    "fee": "",
    "externalLink": ""
  },
  {
    "id": "s000370",
    "country": "USA",
    "adminDiv": "California",
    "latitude": 38.85,
    "longitude": -122.667,
    "springName": "BAD CREEK SPRING",
    "type": "",
    "tempF": 81,
    "access": "",
    "fee": "",
    "externalLink": ""
  },
  {
    "id": "s000371",
    "country": "USA",
    "adminDiv": "California",
    "latitude": 38.892,
    "longitude": -122.533,
    "springName": "BAKER SODA SPRING",
    "type": "",
    "tempF": 76,
    "access": "",
    "fee": "",
    "externalLink": ""
  },
  {
    "id": "s000372",
    "country": "USA",
    "adminDiv": "California",
    "latitude": 38.58,
    "longitude": -122.575,
    "springName": "CALISTOGA HOT SPRINGS",
    "type": "",
    "tempF": 172,
    "access": "",
    "fee": "",
    "externalLink": ""
  },
  {
    "id": "s000373",
    "country": "USA",
    "adminDiv": "California",
    "latitude": 38.916,
    "longitude": -122.799,
    "springName": "CARLSBAD SPRING",
    "type": "",
    "tempF": 76,
    "access": "",
    "fee": "",
    "externalLink": ""
  },
  {
    "id": "s000374",
    "country": "USA",
    "adminDiv": "California",
    "latitude": 38.768,
    "longitude": -122.717,
    "springName": "CASTLE ROCK SPRINGS",
    "type": "",
    "tempF": 163,
    "access": "",
    "fee": "",
    "externalLink": ""
  },
  {
    "id": "s000375",
    "country": "USA",
    "adminDiv": "California",
    "latitude": 38.995,
    "longitude": -122.642,
    "springName": "DAVIS SODA SPRING",
    "type": "",
    "tempF": 73,
    "access": "",
    "fee": "",
    "externalLink": ""
  },
  {
    "id": "s000376",
    "country": "USA",
    "adminDiv": "California",
    "latitude": 38.897,
    "longitude": -122.882,
    "springName": "ENGLAND SPRINGS",
    "type": "",
    "tempF": 76,
    "access": "",
    "fee": "",
    "externalLink": ""
  },
  {
    "id": "s000377",
    "country": "USA",
    "adminDiv": "California",
    "latitude": 38.979,
    "longitude": -122.659,
    "springName": "FUMAROLE",
    "type": "",
    "tempF": "H",
    "access": "",
    "fee": "",
    "externalLink": ""
  },
  {
    "id": "s000378",
    "country": "USA",
    "adminDiv": "California",
    "latitude": 38.835,
    "longitude": -122.731,
    "springName": "GORDON WARM SPRINGS",
    "type": "",
    "tempF": 97,
    "access": "",
    "fee": "",
    "externalLink": ""
  },
  {
    "id": "s000379",
    "country": "USA",
    "adminDiv": "California",
    "latitude": 38.785,
    "longitude": -122.655,
    "springName": "HARBIN SPRINGS",
    "type": "",
    "tempF": 120,
    "access": "",
    "fee": "",
    "externalLink": ""
  },
  {
    "id": "s000380",
    "country": "USA",
    "adminDiv": "California",
    "latitude": 38.936,
    "longitude": -122.907,
    "springName": "HIGHLAND SPRINGS",
    "type": "",
    "tempF": 84,
    "access": "",
    "fee": "",
    "externalLink": ""
  },
  {
    "id": "s000381",
    "country": "USA",
    "adminDiv": "California",
    "latitude": 38.925,
    "longitude": -122.77,
    "springName": "HILDEBRANDE SPRING",
    "type": "",
    "tempF": 77,
    "access": "",
    "fee": "",
    "externalLink": ""
  },
  {
    "id": "s000382",
    "country": "USA",
    "adminDiv": "California",
    "latitude": 38.8,
    "longitude": -123.17,
    "springName": "HOODS HOT SPRINGS",
    "type": "",
    "tempF": 100,
    "access": "",
    "fee": "",
    "externalLink": ""
  },
  {
    "id": "s000383",
    "country": "USA",
    "adminDiv": "California",
    "latitude": 38.994,
    "longitude": -122.742,
    "springName": "HORSESHOE SPRING",
    "type": "",
    "tempF": 108,
    "access": "",
    "fee": "",
    "externalLink": ""
  },